[
    {
        "General Practitioner (GP)": "Brunswick Community Clinic",
        "Address": "11 Glenlyon Road, Brunswick VIC 3056",
        "Phone": "03 9231 1260",
        "Location": {
            "lat": -37.771508,
            "lng": 144.962631
        }
    },
    {
        "General Practitioner (GP)": "Brunswick Sable Clinic",
        "Address": "362-366 Sydney Road, Brunswick VIC 3056",
        "Phone": "03 5998 3771",
        "Location": {
            "lat": -37.7694104,
            "lng": 144.9619028
        }
    },
    {
        "General Practitioner (GP)": "Melbourne Paediatric Specialists",
        "Address": "Level 4 Suite 403, 48 Flemington Road, Parkville VIC 3052",
        "Phone": "03 9948 5005",
        "Location": {
            "lat": -37.7945021,
            "lng": 144.9496536
        }
    },
    {
        "General Practitioner (GP)": "MOONEE VALLEY CITY COUNCIL",
        "Address": "Moonee Valley City Council Civic Centre, Floor First, 9 Kellaway Avenue, Moonee Ponds VIC 3039",
        "Phone": "03 9243 8888",
        "Location": {
            "lat": -37.7645702,
            "lng": 144.9233013
        }
    },
    {
        "General Practitioner (GP)": "HealthSmart Clinic VCCC",
        "Address": "Victorian Comprehensive Cancer Centre, 311 Grattan Street, Melbourne VIC 3000",
        "Phone": "03 9349 1067",
        "Location": {
            "lat": -37.7995735,
            "lng": 144.9550822
        }
    },
    {
        "General Practitioner (GP)": "City of Melbourne - Family Services Team",
        "Address": "Family Services at Carlton Baths, 248 Rathdowne Street, Carlton VIC 3053",
        "Phone": "03 9340 1422",
        "Location": {
            "lat": -37.8040123,
            "lng": 144.9692993
        }
    },
    {
        "General Practitioner (GP)": "Clinic - Moonee Ponds",
        "Address": "88-92 Puckle Street, Moonee Ponds VIC 3039",
        "Phone": "03 9375 4300",
        "Location": {
            "lat": -37.76670824736842,
            "lng": 144.92184127894737
        }
    },
    {
        "General Practitioner (GP)": "Moreland General Practice",
        "Address": "80 Moreland Road, Brunswick VIC 3056",
        "Phone": "03 9385 1250",
        "Location": {
            "lat": -37.7561047,
            "lng": 144.9699562
        }
    },
    {
        "General Practitioner (GP)": "Clinic - North Melbourne",
        "Address": "19-23 Errol Street, North Melbourne VIC 3051",
        "Phone": "03 9329 0849",
        "Location": {
            "lat": -37.8030195,
            "lng": 144.9497312
        }
    },
    {
        "General Practitioner (GP)": "Ascot Vale Clinic",
        "Address": "67-69 Union Road, Ascot Vale VIC 3032",
        "Phone": "03 9370 4146",
        "Location": {
            "lat": -37.7805224,
            "lng": 144.9147598
        }
    },
    {
        "General Practitioner (GP)": "Clifton Hill Clinic",
        "Address": "340 Queens Parade, Clifton Hill VIC 3068",
        "Phone": "03 9489 8731",
        "Location": {
            "lat": -37.7896979,
            "lng": 144.9886126
        }
    },
    {
        "General Practitioner (GP)": "Essendon Family Medical Clinic",
        "Address": "Suite 1, 143 Napier Street, Essendon VIC 3040",
        "Phone": "03 9370 0890",
        "Location": {
            "lat": -37.7497833,
            "lng": 144.9187056
        }
    },
    {
        "General Practitioner (GP)": "Clinic - Fitzroy",
        "Address": "165 Smith Street, Fitzroy VIC 3065",
        "Phone": "03 9417 3377",
        "Location": {
            "lat": -37.8043398,
            "lng": 144.9831751
        }
    },
    {
        "General Practitioner (GP)": "Doctors of Northcote",
        "Address": "293-295 High Street, Northcote VIC 3070",
        "Phone": "03 8481 3600",
        "Location": {
            "lat": -37.7774439,
            "lng": 144.9974244
        }
    },
    {
        "General Practitioner (GP)": "Moreland City Council - Civic Centre",
        "Address": "Coburg Civic Centre, 90 Bell Street, Coburg VIC 3058",
        "Phone": "03 9240 1111",
        "Location": {
            "lat": -37.7414091,
            "lng": 144.9693696
        }
    },
    {
        "General Practitioner (GP)": "Priceline Clinic Bourke Street Mall",
        "Address": "Centrepoint Building, Shop 108-125, 283 Bourke Street, Melbourne VIC 3000",
        "Phone": "03 9654 2034",
        "Location": {
            "lat": -37.813969,
            "lng": 144.964876
        }
    },
    {
        "General Practitioner (GP)": "Melbourne City Council",
        "Address": "Administration Building, 120 Swanston Street, Melbourne VIC 3000",
        "Phone": "03 9658 9658",
        "Location": {
            "lat": -37.8186502,
            "lng": 144.9680827
        }
    },
    {
        "General Practitioner (GP)": "Midtown Medical Clinic",
        "Address": "Level 4, 250 Collins Street, Melbourne VIC 3000",
        "Phone": "03 9650 4284",
        "Location": {
            "lat": -37.81549390977831,
            "lng": 144.9658734305359
        }
    },
    {
        "General Practitioner (GP)": "Northcote Clinic",
        "Address": "Shop 4, Northcote Plaza, Shop 5, 3 Separation Street, Northcote VIC 3070",
        "Phone": "03 9481 7255",
        "Location": {
            "lat": -37.7698296,
            "lng": 145.0031884
        }
    },
    {
        "General Practitioner (GP)": "Young People's Health Service (Royal Childrens Hospital)",
        "Address": "Frontyard Youth Services, 244 Flinders Street, Melbourne VIC 3000",
        "Phone": "03 9611 2409",
        "Location": {
            "lat": -37.817536,
            "lng": 144.9662107
        }
    },
    {
        "General Practitioner (GP)": "Pyman's Clinic",
        "Address": "84 Wellington Parade, East Melbourne VIC 3002",
        "Phone": "03 9419 4464",
        "Location": {
            "lat": -37.8164145,
            "lng": 144.9871973
        }
    },
    {
        "General Practitioner (GP)": "Clinic Southbank",
        "Address": "Shop 2-3, 153-159 Sturt Street, Southbank VIC 3006",
        "Phone": "03 9682 2278",
        "Location": {
            "lat": -37.8276939,
            "lng": 144.9665201
        }
    },
    {
        "General Practitioner (GP)": "Bridge Road Clinic",
        "Address": "Shop 1, 246 Bridge Road, Richmond VIC 3121",
        "Phone": "03 9429 7337",
        "Location": {
            "lat": -37.8186634,
            "lng": 144.9989191
        }
    },
    {
        "General Practitioner (GP)": "Clinic - Footscray",
        "Address": "190 Barkly Street, Footscray VIC 3011",
        "Phone": "03 9687 0275",
        "Location": {
            "lat": -37.799424,
            "lng": 144.897812
        }
    },
    {
        "General Practitioner (GP)": "Yarra City Council Aged Care Services",
        "Address": "333 Bridge Road, Richmond VIC 3121",
        "Phone": "03 9205 5555",
        "Location": {
            "lat": -37.8184016,
            "lng": 145.0008009447552
        }
    },
    {
        "General Practitioner (GP)": "Darebin Immunisation Service",
        "Address": "Maternal and Child Health Building, 270 Gower Street, Preston VIC 3072",
        "Phone": "03 8470 8562",
        "Location": {
            "lat": -37.7403819,
            "lng": 145.0052003
        }
    },
    {
        "General Practitioner (GP)": "Thornbury Clinic",
        "Address": "408 Station Street, Thornbury VIC 3071",
        "Phone": "03 9480 4000",
        "Location": {
            "lat": -37.7548006,
            "lng": 145.0205315
        }
    },
    {
        "General Practitioner (GP)": "Buckley Street Clinic",
        "Address": "Buckley Street Clinic, 357 Buckley Street, Aberfeldie VIC 3040",
        "Phone": "0393310000",
        "Location": {
            "lat": -37.7554358,
            "lng": 144.9027885
        }
    },
    {
        "General Practitioner (GP)": "Clinic - Preston",
        "Address": "475-479 High Street, Preston VIC 3072",
        "Phone": "03 9470 6626",
        "Location": {
            "lat": -37.745241,
            "lng": 145.002801
        }
    },
    {
        "General Practitioner (GP)": "Priceline Clinic Highpoint",
        "Address": "Highpoint Shopping Centre, Level 2 Shop 2539, 200 Rosamond Road, Maribyrnong VIC 3032",
        "Phone": "03 9318 2983",
        "Location": {
            "lat": -37.7732838,
            "lng": 144.88880200099536
        }
    },
    {
        "General Practitioner (GP)": "Port Phillip City Council - South Melbourne Office",
        "Address": "208 220 Bank Street, South Melbourne VIC 3205",
        "Phone": "03 9209 6777",
        "Location": {
            "lat": -37.8346756,
            "lng": 144.9599595
        }
    },
    {
        "General Practitioner (GP)": "Terrywhite Clinic - Richmond",
        "Address": "210 Swan Street, Richmond VIC 3121",
        "Phone": "03 9428 5143",
        "Location": {
            "lat": -37.8256154,
            "lng": 144.9966142
        }
    },
    {
        "General Practitioner (GP)": "Skin Temple",
        "Address": "Ground floor, 31 Arnold Street, Melbourne VIC 3004",
        "Phone": "0398672992",
        "Location": {
            "lat": -37.8354782,
            "lng": 144.9765947
        }
    },
    {
        "General Practitioner (GP)": "Port Phillip City Council - Port Melbourne Office",
        "Address": "Bubup Womindjeka Family and Children\u2019s Centre, 85 Liardet Street, Port Melbourne VIC 3207",
        "Phone": "03 9209 6777",
        "Location": {
            "lat": -37.8409829,
            "lng": 144.9465618
        }
    },
    {
        "General Practitioner (GP)": "Port Bay Street Clinic",
        "Address": "51 Bay Street, Port Melbourne VIC 3207",
        "Phone": "03 9646 3597",
        "Location": {
            "lat": -37.8325082,
            "lng": 144.9479193
        }
    },
    {
        "General Practitioner (GP)": "Clinic Niddrie",
        "Address": "Shop 2-4, 312-318 Keilor Road, Niddrie VIC 3042",
        "Phone": "03 9379 1455",
        "Location": {
            "lat": -37.7307276,
            "lng": 144.8738551
        }
    },
    {
        "General Practitioner (GP)": "Clinic Preston Home Co DC",
        "Address": "Tenancy T08, 85 Chifley Drive, Preston VIC 3072",
        "Phone": "03 9470 2656",
        "Location": {
            "lat": -37.7445036,
            "lng": 145.029344
        }
    },
    {
        "General Practitioner (GP)": "First Point Medicals - Niddrie",
        "Address": "Ground Floor  Shop 2, 326 Keilor Road, Niddrie VIC 3042",
        "Phone": "03 8383 2351",
        "Location": {
            "lat": -37.737036,
            "lng": 144.892353
        }
    },
    {
        "General Practitioner (GP)": "Niddrie Clinic Superstore",
        "Address": "451-453 Keilor Road, Niddrie VIC 3042",
        "Phone": "03 9379 2494",
        "Location": {
            "lat": -37.7307276,
            "lng": 144.8738551
        }
    },
    {
        "General Practitioner (GP)": "Carnovale Clinic",
        "Address": "149 Somerville Road, Yarraville VIC 3013",
        "Phone": "03 9314 7557",
        "Location": {
            "lat": -37.8137128,
            "lng": 144.8917186
        }
    },
    {
        "General Practitioner (GP)": "Nelson's Amcal Clinic",
        "Address": "124 West Street, Glenroy VIC 3046",
        "Phone": "03 9306 8196",
        "Location": {
            "lat": -37.7049821,
            "lng": 144.9387072
        }
    },
    {
        "General Practitioner (GP)": "Inner West Clinic",
        "Address": "304 Williamstown Road, Yarraville VIC 3013",
        "Phone": "03 9314 6877",
        "Location": {
            "lat": -37.8254097,
            "lng": 144.88092
        }
    },
    {
        "General Practitioner (GP)": "Direct Clinic Outlet Clinic",
        "Address": "4 Edwardes Street, Clinic VIC 3073",
        "Phone": "03 9462 1423",
        "Location": {
            "lat": -37.7162353,
            "lng": 145.0057433
        }
    },
    {
        "General Practitioner (GP)": "Your Community Health - East Clinic",
        "Address": "125 Blake Street, Clinic VIC 3073",
        "Phone": "03 8470 1111",
        "Location": {
            "lat": -37.7310502,
            "lng": 145.0286231
        }
    },
    {
        "General Practitioner (GP)": "TerryWhite Clinic Hawthorn",
        "Address": "736-738 Glenferrie Road, Hawthorn VIC 3122",
        "Phone": "03 9818 1313",
        "Location": {
            "lat": -37.8253913,
            "lng": 145.0348377
        }
    },
    {
        "General Practitioner (GP)": "Priceline Clinic - Prahran",
        "Address": "299-301 Chapel Street, Prahran VIC 3181",
        "Phone": "03 9510 4253",
        "Location": {
            "lat": -37.8456383,
            "lng": 144.994398
        }
    },
    {
        "General Practitioner (GP)": "Amcal Clinic - Prahran",
        "Address": "181 Chapel Street, Prahran VIC 3181",
        "Phone": "03 9525 0303",
        "Location": {
            "lat": -37.8456383,
            "lng": 144.994398
        }
    },
    {
        "General Practitioner (GP)": "Stott's Corner Clinic",
        "Address": "532 Glenferrie Road, Hawthorn VIC 3122",
        "Phone": "03 9818 4424",
        "Location": {
            "lat": -37.8253913,
            "lng": 145.0348377
        }
    },
    {
        "General Practitioner (GP)": "Seutika Clinic Windsor",
        "Address": "107 Chapel Street, Windsor VIC 3181",
        "Phone": "03 9510 1963",
        "Location": {
            "lat": -37.8576467,
            "lng": 144.9922866
        }
    },
    {
        "General Practitioner (GP)": "Kapadia Amcal Clinic",
        "Address": "793 Pascoe Vale Road, Glenroy VIC 3046",
        "Phone": "03 9306 9010",
        "Location": {
            "lat": -37.7146398,
            "lng": 144.9176758
        }
    },
    {
        "General Practitioner (GP)": "Clinic - Keilor East",
        "Address": "Lot 3, 233 Milleara Road, Keilor East VIC 3033",
        "Phone": "03 9325 4660",
        "Location": {
            "lat": -37.7401321,
            "lng": 144.863719
        }
    },
    {
        "General Practitioner (GP)": "Hawthorn East Medical & Aesthetic Clinic (HEMAC)",
        "Address": "663 Burwood Road, Hawthorn East VIC 3123",
        "Phone": "03 9078 9997",
        "Location": {
            "lat": -37.8245309,
            "lng": 145.051316
        }
    },
    {
        "General Practitioner (GP)": "Camberwell Road Medical Practice",
        "Address": "Level 2, 124-126 Camberwell Road, Hawthorn East VIC 3123",
        "Phone": "03 9834 7600",
        "Location": {
            "lat": -37.8275331,
            "lng": 145.0522757
        }
    },
    {
        "General Practitioner (GP)": "Clinic Campbellfield DC",
        "Address": "1463 Sydney Road, Campbellfield VIC 3061",
        "Phone": "03 9359 3165",
        "Location": {
            "lat": -37.6829233,
            "lng": 144.9570667
        }
    },
    {
        "General Practitioner (GP)": "Acland Court Priceline Clinic",
        "Address": "160 Acland Street, St Kilda VIC 3182",
        "Phone": "03 9525 5111",
        "Location": {
            "lat": -37.8679477,
            "lng": 144.9791754
        }
    },
    {
        "General Practitioner (GP)": "Priceline Clinic - Williamstown",
        "Address": "Shop 2, 19-21 Douglas Parade, Williamstown VIC 3016",
        "Phone": "03 9397 5114",
        "Location": {
            "lat": -37.8587631,
            "lng": 144.897945
        }
    },
    {
        "General Practitioner (GP)": "Ramsay Clinic - Altona North",
        "Address": "53 The Circle, Altona North VIC 3025",
        "Phone": "03 9391 3775",
        "Location": {
            "lat": -37.836696599999996,
            "lng": 144.86392437979828
        }
    },
    {
        "General Practitioner (GP)": "Boroondara City Council - Camberwell",
        "Address": "8 Inglesby Road, Camberwell VIC 3124",
        "Phone": "03 9278 4444",
        "Location": {
            "lat": -37.834624899999994,
            "lng": 145.06011329848826
        }
    },
    {
        "General Practitioner (GP)": "Amcal Clinic - Tooronga",
        "Address": "Shop 8, 766 Toorak Road, Glen Iris VIC 3146",
        "Phone": "03 9822 2342",
        "Location": {
            "lat": -37.8477801,
            "lng": 145.0725454
        }
    },
    {
        "General Practitioner (GP)": "TerryWhite Clinic Sunshine",
        "Address": "Sunshine Plaza Shopping Centre, Shop 34, 324-328 Hampshire Road, Sunshine VIC 3020",
        "Phone": "03 9312 3155",
        "Location": {
            "lat": -37.7877056,
            "lng": 144.8332593
        }
    },
    {
        "General Practitioner (GP)": "Hampshire Compounding Clinic",
        "Address": "314 Hampshire Road, Sunshine VIC 3020",
        "Phone": "03 9311 1417",
        "Location": {
            "lat": -37.7877056,
            "lng": 144.8332593
        }
    },
    {
        "General Practitioner (GP)": "Hume City Council Immunisation Services - Broadmeadows",
        "Address": "Broadmeadows Global Learning Centre, 1093 Pascoe Vale Road, Broadmeadows VIC 3047",
        "Phone": "03 9205 2523",
        "Location": {
            "lat": -37.6825331,
            "lng": 144.91848594256302
        }
    },
    {
        "General Practitioner (GP)": "Malvern Corner Clinic",
        "Address": "1434 High Street, Malvern VIC 3144",
        "Phone": "03 9509 5172",
        "Location": {
            "lat": -37.8582476,
            "lng": 145.0410836
        }
    },
    {
        "General Practitioner (GP)": "Clinic - Balwyn",
        "Address": "252-254 Whitehorse Road, Balwyn VIC 3103",
        "Phone": "03 9830 1254",
        "Location": {
            "lat": -37.8125434,
            "lng": 145.0789127
        }
    },
    {
        "General Practitioner (GP)": "Clinic Bulleen Plaza",
        "Address": "Bulleen Plaza, Shop 2E-2F, 83-103 Manningham Road, Bulleen VIC 3105",
        "Phone": "03 9852 1044",
        "Location": {
            "lat": -37.7601999,
            "lng": 145.0810519
        }
    },
    {
        "General Practitioner (GP)": "Priceline Clinic - Gladstone Park",
        "Address": "Gladstone Park Shopping Centre, Shop 155, Gladstone Park Drive, Gladstone Park VIC 3043",
        "Phone": "03 9335 5222",
        "Location": {
            "lat": -37.6892322,
            "lng": 144.8843377
        }
    },
    {
        "General Practitioner (GP)": "Greythorn Amcal Clinic",
        "Address": "297-301 Doncaster Road, Balwyn North VIC 3104",
        "Phone": "03 9857 7363",
        "Location": {
            "lat": -37.7933648,
            "lng": 145.0644139
        }
    },
    {
        "General Practitioner (GP)": "TerryWhite Clinic Keilor Village",
        "Address": "686 Old Calder Highway, Keilor VIC 3036",
        "Phone": "03 9336 7395",
        "Location": {
            "lat": -37.7102699,
            "lng": 144.8210859
        }
    },
    {
        "General Practitioner (GP)": "Priceline Clinic - Bundoora",
        "Address": "39A Plenty Road, Bundoora VIC 3083",
        "Phone": "03 9467 1414",
        "Location": {
            "lat": -37.69647638545886,
            "lng": 145.05852436629942
        }
    },
    {
        "General Practitioner (GP)": "The Women's and Children's Immunisation Services",
        "Address": "Joan Kirner Women's and Children's at Sunshine Hospital, Ground Floor, 176 Furlong Road, St Albans VIC 3021",
        "Phone": "0390552027",
        "Location": {
            "lat": -37.758736799999994,
            "lng": 144.81752078211372
        }
    },
    {
        "General Practitioner (GP)": "NEST Family Wellness Clinic - Elsternwick",
        "Address": "289 Kooyong Road, Elsternwick VIC 3185",
        "Phone": "1300 637 832",
        "Location": {
            "lat": -37.8821848,
            "lng": 145.0157237
        }
    },
    {
        "General Practitioner (GP)": "Priceline Clinic Lalor Plaza",
        "Address": "Shop 19, 22 Mckimmies Road, Lalor VIC 3075",
        "Phone": "03 9465 0202",
        "Location": {
            "lat": -37.6762132,
            "lng": 145.0416002
        }
    },
    {
        "General Practitioner (GP)": "Amcal+ Clinic Ashburton",
        "Address": "162-164 High Street, Ashburton VIC 3147",
        "Phone": "03 9885 5154",
        "Location": {
            "lat": -37.8632855,
            "lng": 145.0777096
        }
    },
    {
        "General Practitioner (GP)": "Quality Clinic - Keilor Downs",
        "Address": "Keilor Downs Plaza, Shop 23, 80 Taylors Road, Keilor Downs VIC 3038",
        "Phone": "03 9364 0294",
        "Location": {
            "lat": -37.7276623,
            "lng": 144.7935144
        }
    },
    {
        "General Practitioner (GP)": "Burgess Family Centre",
        "Address": "15 Barwon Street, Box Hill North VIC 3129",
        "Phone": "03 9262 6333",
        "Location": {
            "lat": -37.8107588,
            "lng": 145.1183711
        }
    },
    {
        "General Practitioner (GP)": "HOBSONS BAY CITY COUNCIL",
        "Address": "115 Civic Parade, Altona VIC 3018",
        "Phone": "1300 179 944",
        "Location": {
            "lat": -37.86372905,
            "lng": 144.83102951464355
        }
    },
    {
        "General Practitioner (GP)": "Wattle Park Amcal Clinic",
        "Address": "1123 Riversdale Road, Surrey Hills VIC 3127",
        "Phone": "03 9808 1289",
        "Location": {
            "lat": -37.8369057,
            "lng": 145.1045918
        }
    },
    {
        "General Practitioner (GP)": "National Clinic Middle Brighton",
        "Address": "2 Church Street, Brighton VIC 3186",
        "Phone": "03 9592 5097",
        "Location": {
            "lat": -37.911981,
            "lng": 144.991986
        }
    },
    {
        "General Practitioner (GP)": "Priceline Clinic - Greensborough Plaza",
        "Address": "Greensborough Plaza, Shop 383, 25 Main Street, Greensborough VIC 3088",
        "Phone": "03 9432 4988",
        "Location": {
            "lat": -37.701592,
            "lng": 145.1069013
        }
    },
    {
        "General Practitioner (GP)": "Hume City Council Immunisation Services - Greenvale",
        "Address": "Greenvale Recreation Centre, 27 Barrymore Road, Greenvale VIC 3059",
        "Phone": "03 9205 2523",
        "Location": {
            "lat": -37.6521095,
            "lng": 144.8887392
        }
    },
    {
        "General Practitioner (GP)": "BANYULE CITY COUNCIL",
        "Address": "WaterMarc Building, 1 Flintoff Street, Greensborough VIC 3088",
        "Phone": "03 9490 4222",
        "Location": {
            "lat": -37.7041979,
            "lng": 145.10479019617492
        }
    },
    {
        "General Practitioner (GP)": "Quality Clinic - Brighton",
        "Address": "33 Church Street, Brighton VIC 3186",
        "Phone": "03 9592 1500",
        "Location": {
            "lat": -37.913198,
            "lng": 144.993830
        }
    },
    {
        "General Practitioner (GP)": "Box Hill South Clinic",
        "Address": "878 Canterbury Road, Box Hill South VIC 3128",
        "Phone": "03 9890 3064",
        "Location": {
            "lat": -37.8287021,
            "lng": 145.1214519
        }
    },
    {
        "General Practitioner (GP)": "MANNINGHAM CITY COUNCIL",
        "Address": "699 Doncaster Road, Doncaster VIC 3108",
        "Phone": "03 9840 9256",
        "Location": {
            "lat": -37.78651205,
            "lng": 145.1326431801163
        }
    },
    {
        "General Practitioner (GP)": "Advocate Clinic",
        "Address": "6 Landale Street, Box Hill VIC 3128",
        "Phone": "03 9898 0616",
        "Location": {
            "lat": -37.8283855,
            "lng": 145.1264433
        }
    },
    {
        "General Practitioner (GP)": "City of Whitehorse - Box Hill Service Centre",
        "Address": "1022 Whitehorse Road, Box Hill VIC 3128",
        "Phone": "03 9262 6333",
        "Location": {
            "lat": -37.818174,
            "lng": 145.1226802
        }
    },
    {
        "General Practitioner (GP)": "Greenvale Recreation Centre",
        "Address": "27 Barrymore Road, Greenvale VIC 3059",
        "Phone": "03 9333 1066",
        "Location": {
            "lat": -37.6521095,
            "lng": 144.8887392
        }
    },
    {
        "General Practitioner (GP)": "Discount Clinic Australia Kerrimuir",
        "Address": "537 Middleborough Road, Box Hill North VIC 3129",
        "Phone": "03 9890 2352",
        "Location": {
            "lat": -37.7986034,
            "lng": 145.1420742
        }
    },
    {
        "General Practitioner (GP)": "Terry White Clinic - Brimbank",
        "Address": "Brimbank Central Shopping Centre, Shop T51, 28-72 Neale Road, Deer Park VIC 3023",
        "Phone": "03 9363 6065",
        "Location": {
            "lat": -37.7513742,
            "lng": 144.7661624
        }
    },
    {
        "General Practitioner (GP)": "Clinic Derrimut",
        "Address": "Derrimut Village Shopping Centre, Shop 12-13, 20 Mt Derrimut Road, Derrimut VIC 3030",
        "Phone": "03 8390 6900",
        "Location": {
            "lat": -37.7831794,
            "lng": 144.7723214
        }
    },
    {
        "General Practitioner (GP)": "Jackson Court Clinic",
        "Address": "64 Jackson Court, Doncaster East VIC 3109",
        "Phone": "03 9848 1400",
        "Location": {
            "lat": -37.788223,
            "lng": 145.1493736
        }
    },
    {
        "General Practitioner (GP)": "Allegiance Medical",
        "Address": "376 Centre Road, Bentleigh VIC 3204",
        "Phone": "03 8525 1480",
        "Location": {
            "lat": -37.9184189,
            "lng": 145.0384968
        }
    },
    {
        "General Practitioner (GP)": "Clinic - Bentleigh",
        "Address": "421 Centre Road, Bentleigh VIC 3204",
        "Phone": "03 9557 0396",
        "Location": {
            "lat": -37.9184189,
            "lng": 145.0384968
        }
    },
    {
        "General Practitioner (GP)": "Priceline Clinic Bentleigh",
        "Address": "427-429 Centre Road, Bentleigh VIC 3204",
        "Phone": "03 9557 1232",
        "Location": {
            "lat": -37.9184189,
            "lng": 145.0384968
        }
    },
    {
        "General Practitioner (GP)": "Quality Clinic - Burwood East",
        "Address": "26 Burwood Highway, Burwood East VIC 3151",
        "Phone": "03 9808 9962",
        "Location": {
            "lat": -37.8527314,
            "lng": 145.1517702
        }
    },
    {
        "General Practitioner (GP)": "Whittlesea City Council",
        "Address": "25 Ferres Boulevard, South Morang VIC 3752",
        "Phone": "03 9217 2276",
        "Location": {
            "lat": -37.6452683,
            "lng": 145.06720371017627
        }
    },
    {
        "General Practitioner (GP)": "Oakleigh Central Amcal Clinic",
        "Address": "Oakleigh Central Shopping Centre, Shop 1, 39 Hanover Street, Oakleigh VIC 3166",
        "Phone": "03 9563 2044",
        "Location": {
            "lat": -37.9006872,
            "lng": 145.0903411
        }
    },
    {
        "General Practitioner (GP)": "Amcal Max - Doncaster East",
        "Address": "274-276 Blackburn Road, Doncaster East VIC 3109",
        "Phone": "03 9842 4426",
        "Location": {
            "lat": -37.7789252,
            "lng": 145.1637259
        }
    },
    {
        "General Practitioner (GP)": "Blackburn Clinic",
        "Address": "195 Whitehorse Road, Blackburn VIC 3130",
        "Phone": "03 9875 1111",
        "Location": {
            "lat": -37.8171833,
            "lng": 145.1517589
        }
    },
    {
        "General Practitioner (GP)": "Blackburn Central Clinic",
        "Address": "195 Whitehorse Road, Blackburn VIC 3130",
        "Phone": "03 9877 3028",
        "Location": {
            "lat": -37.8171833,
            "lng": 145.1517589
        }
    },
    {
        "General Practitioner (GP)": "Clinic - Watergardens",
        "Address": "Watergardens Shopping Centre, Shop A005, 399 Melton Highway, Taylors Lakes VIC 3038",
        "Phone": "03 8361 6322",
        "Location": {
            "lat": -37.70072865,
            "lng": 144.77700320439482
        }
    },
    {
        "General Practitioner (GP)": "Thompsons Clinic - Eltham",
        "Address": "962-964 Main Road, Eltham North VIC 3095",
        "Phone": "03 9439 9249",
        "Location": {
            "lat": -37.7048859,
            "lng": 145.1531143
        }
    },
    {
        "General Practitioner (GP)": "Phoebe Thomas Naturopath",
        "Address": "962-964 Main Road, Eltham VIC 3095",
        "Phone": "03 9439 9249",
        "Location": {
            "lat": -37.7048859,
            "lng": 145.1531143
        }
    },
    {
        "General Practitioner (GP)": "Priceline Clinic Eltham",
        "Address": "Shop 4, 6-20 Luck Street, Eltham VIC 3095",
        "Phone": "03 9439 7568",
        "Location": {
            "lat": -37.7129309,
            "lng": 145.1534375
        }
    },
    {
        "General Practitioner (GP)": "Clinic - Mount Waverley",
        "Address": "33 Hamilton Place, Mount Waverley VIC 3149",
        "Phone": "03 9807 1663",
        "Location": {
            "lat": -37.8759981,
            "lng": 145.1282262
        }
    },
    {
        "General Practitioner (GP)": "TerryWhite Clinic Watergardens",
        "Address": "Watergardens Shopping Centre, Shop 22-24, 399 Melton Highway, Taylors Lakes VIC 3038",
        "Phone": "03 9449 2999",
        "Location": {
            "lat": -37.70072865,
            "lng": 144.77700320439482
        }
    },
    {
        "General Practitioner (GP)": "Priceline Clinic - Watergardens",
        "Address": "Shop 44, 399 Melton Highway, Taylors Lakes VIC 3038",
        "Phone": "03 9449 0063",
        "Location": {
            "lat": -37.70072865,
            "lng": 144.77700320439482
        }
    },
    {
        "General Practitioner (GP)": "Quality Clinic - Burwood One",
        "Address": "Burwood One Shopping Centre, Shop 20, 172 Burwood Highway, Burwood East VIC 3151",
        "Phone": "03 9886 6888",
        "Location": {
            "lat": -37.8527314,
            "lng": 145.1517702
        }
    },
    {
        "General Practitioner (GP)": "Temple Hills Clinic",
        "Address": "2 Devlaw Drive, Doncaster East VIC 3109",
        "Phone": "03 9842 9911",
        "Location": {
            "lat": -37.7662356,
            "lng": 145.1725003
        }
    },
    {
        "General Practitioner (GP)": "City of Whitehorse - Forest Hill Service Centre",
        "Address": "Forest Hill Chase Sc, Shop 275, 270 Canterbury Road, Forest Hill VIC 3131",
        "Phone": "03 9262 6333",
        "Location": {
            "lat": -37.83594745,
            "lng": 145.16467043631184
        }
    },
    {
        "General Practitioner (GP)": "Priceline Clinic Forest Hill",
        "Address": "Forest Hill Chase Shopping Centre, Shop 127, 270 Canterbury Road, Forest Hill VIC 3131",
        "Phone": "03 9878 3981",
        "Location": {
            "lat": -37.83594745,
            "lng": 145.16467043631184
        }
    },
    {
        "General Practitioner (GP)": "Active Clinic",
        "Address": "228-232 Caroline Springs Boulevard, Caroline Springs VIC 3023",
        "Phone": "03 9363 0954",
        "Location": {
            "lat": -37.7538709,
            "lng": 144.7399683
        }
    },
    {
        "General Practitioner (GP)": "Hume City Council Immunisation Services - Craigieburn",
        "Address": "Craigieburn Function Rooms, 127 Craigieburn Road, Craigieburn VIC 3064",
        "Phone": "03 9205 2523",
        "Location": {
            "lat": -37.5968998,
            "lng": 144.9225218
        }
    },
    {
        "General Practitioner (GP)": "Super Saver Clinic - Craigieburn",
        "Address": "Craigieburn Plaza, Shop 27, 32-38 Craigieburn Road, Craigieburn VIC 3064",
        "Phone": "03 9333 7417",
        "Location": {
            "lat": -37.5968998,
            "lng": 144.9225218
        }
    },
    {
        "General Practitioner (GP)": "Ramsay Clinic Highett",
        "Address": "Shop 11, 284-286 Highett Road, Highett VIC 3190",
        "Phone": "03 9555 2468",
        "Location": {
            "lat": -37.9484291,
            "lng": 145.0391851
        }
    },
    {
        "General Practitioner (GP)": "United Clinic - Taylors Hill",
        "Address": "Taylors Hill Village, Shop 8, 127 Gourlay Road, Taylors Hill VIC 3037",
        "Phone": "03 8358 2430",
        "Location": {
            "lat": -37.7061149,
            "lng": 144.7415057
        }
    },
    {
        "General Practitioner (GP)": "PharmaSave Clinic Brentford Square",
        "Address": "Brentford Square Shopping, Shop 4, 500 Canterbury Road, Forest Hill VIC 3131",
        "Phone": "03 9878 1288",
        "Location": {
            "lat": -37.8357237,
            "lng": 145.1800972
        }
    },
    {
        "General Practitioner (GP)": "Bayside City Council Aged and Disability Services",
        "Address": "76 Royal Avenue, Sandringham VIC 3191",
        "Phone": "03 9599 4444",
        "Location": {
            "lat": -37.9585069,
            "lng": 145.01473
        }
    },
    {
        "General Practitioner (GP)": "Priceline Clinic - Craigieburn Central",
        "Address": "Shop 29, 340 Craigieburn Road, Craigieburn VIC 3064",
        "Phone": "03 9333 7628",
        "Location": {
            "lat": -37.5968998,
            "lng": 144.9225218
        }
    },
    {
        "General Practitioner (GP)": "Nurse Connect",
        "Address": "AMCAL Craigieburn, 340 Craigieburn Road, Craigieburn VIC 3064",
        "Phone": "03 9308 4981",
        "Location": {
            "lat": -37.5968998,
            "lng": 144.9225218
        }
    },
    {
        "General Practitioner (GP)": "Quality Clinic - Mitcham",
        "Address": "507 Whitehorse Road, Mitcham VIC 3132",
        "Phone": "03 9873 1138",
        "Location": {
            "lat": -37.81616,
            "lng": 145.1931423
        }
    },
    {
        "General Practitioner (GP)": "Priceline Clinic Glen Waverley",
        "Address": "Centro The Glen, Shop 103, 235 Springvale Road, Glen Waverley VIC 3150",
        "Phone": "03 9803 2003",
        "Location": {
            "lat": -37.8767897,
            "lng": 145.1648427
        }
    },
    {
        "General Practitioner (GP)": "TerryWhite Clinic - The Glen",
        "Address": "The Glen Shopping Centre, Shop 208, 235 Springvale Road, Glen Waverley VIC 3150",
        "Phone": "03 9802 3755",
        "Location": {
            "lat": -37.8767897,
            "lng": 145.1648427
        }
    },
    {
        "General Practitioner (GP)": "Pharmasave Williams Landing",
        "Address": "Shop 6, 100 Overton Road, Williams Landing VIC 3027",
        "Phone": "03 8360 5383",
        "Location": {
            "lat": -37.8656159,
            "lng": 144.7390777
        }
    },
    {
        "General Practitioner (GP)": "Clinic - Glen Waverley",
        "Address": "263 Springvale Road, Glen Waverley VIC 3150",
        "Phone": "03 9802 9977",
        "Location": {
            "lat": -37.8791843,
            "lng": 145.1656142
        }
    },
    {
        "General Practitioner (GP)": "Mitcham Road Clinic",
        "Address": "572 Mitcham Road, Mitcham VIC 3132",
        "Phone": "03 9873 5836",
        "Location": {
            "lat": -37.8163027,
            "lng": 145.1936549
        }
    },
    {
        "General Practitioner (GP)": "Monash Children's Hospital",
        "Address": "246 Clayton Road, Clayton VIC 3168",
        "Phone": "03 8572 3000",
        "Location": {
            "lat": -37.9205943,
            "lng": 145.1227485434316
        }
    },
    {
        "General Practitioner (GP)": "Monash City Council - Monash Civic Centre",
        "Address": "293 Springvale Road, Glen Waverley VIC 3150",
        "Phone": "03 9518 3555",
        "Location": {
            "lat": -37.88213305,
            "lng": 145.1645142367487
        }
    },
    {
        "General Practitioner (GP)": "Priceline Clinic Southland Bayside",
        "Address": "Southland Shopping Centre, Shop 1016, 1239-1241 Nepean Highway, Cheltenham VIC 3192",
        "Phone": "03 9584 3202",
        "Location": {
            "lat": -37.9654606,
            "lng": 145.0578086
        }
    },
    {
        "General Practitioner (GP)": "TerryWhite Clinic Southland",
        "Address": "Southland Shopping Centre, Shop 2075, 1239 Nepean Highway, Cheltenham VIC 3192",
        "Phone": "03 9584 9666",
        "Location": {
            "lat": -37.9589769,
            "lng": 145.053462
        }
    },
    {
        "General Practitioner (GP)": "Clinic - Clayton",
        "Address": "403-407 Clayton Road, Clayton VIC 3168",
        "Phone": "03 9544 2444",
        "Location": {
            "lat": -37.9136289,
            "lng": 145.1219021
        }
    },
    {
        "General Practitioner (GP)": "Kerrie Road Clinic",
        "Address": "24 Kerrie Road, Glen Waverley VIC 3150",
        "Phone": "03 9802 1377",
        "Location": {
            "lat": -37.8762559,
            "lng": 145.1778108
        }
    },
    {
        "General Practitioner (GP)": "Aspire Medical and Skin Centre",
        "Address": "Shop 7, 1 Sanctuary Road, Hillside VIC 3037",
        "Phone": "03 8390 9500",
        "Location": {
            "lat": -37.6919694,
            "lng": 144.7304725
        }
    },
    {
        "General Practitioner (GP)": "Clinic 360 Black Rock",
        "Address": "16 Bluff Road, Black Rock VIC 3193",
        "Phone": "03 9589 3768",
        "Location": {
            "lat": -37.9742292,
            "lng": 145.0164204
        }
    },
    {
        "General Practitioner (GP)": "Point Cook Super clinic",
        "Address": "Stockland Point Cook Shopping Centre, Shop 101, 7 Main Street, Point Cook VIC 3030",
        "Phone": "03 9395 8077",
        "Location": {
            "lat": -37.8826833,
            "lng": 144.7354244
        }
    },
    {
        "General Practitioner (GP)": "Hume City Council Immunisation Services - Craigieburn",
        "Address": "Craigieburn Newbury Child & Community Centre, 440 Grand Boulevard, Craigieburn VIC 3064",
        "Phone": "03 9205 2523",
        "Location": {
            "lat": -37.5711185,
            "lng": 144.9088607
        }
    },
    {
        "General Practitioner (GP)": "Mernda Village Clinic",
        "Address": "60 Mernda Village Drive, Mernda VIC 3754",
        "Phone": "03 9717 0099",
        "Location": {
            "lat": -37.5925799,
            "lng": 145.101803
        }
    },
    {
        "General Practitioner (GP)": "Westgate Clinic - Hoppers Crossing",
        "Address": "381 Sayers Road, Hoppers Crossing VIC 3029",
        "Phone": "03 9748 5088",
        "Location": {
            "lat": -37.8499178,
            "lng": 144.7014938
        }
    },
    {
        "General Practitioner (GP)": "North Ringwood Family Clinic",
        "Address": "196-198 Warrandyte Road, Ringwood North VIC 3134",
        "Phone": "03 9876 2948",
        "Location": {
            "lat": -37.800472,
            "lng": 145.2344111
        }
    },
    {
        "General Practitioner (GP)": "National Clinic - Wheelers Hill",
        "Address": "Wheelers Hill Shopping Centre, Shop 9-11, 190 Jells Road, Wheelers Hill VIC 3150",
        "Phone": "03 9561 5275",
        "Location": {
            "lat": -37.8960064,
            "lng": 145.1910972
        }
    },
    {
        "General Practitioner (GP)": "Terry White Clinic Mentone",
        "Address": "Shop 6, 171-187 Nepean Highway, Mentone VIC 3194",
        "Phone": "03 9583 6636",
        "Location": {
            "lat": -37.9770953,
            "lng": 145.0668693
        }
    },
    {
        "General Practitioner (GP)": "Lim's Clinic",
        "Address": "10A Balmoral Avenue, Springvale VIC 3171",
        "Phone": "03 9562 4233",
        "Location": {
            "lat": -37.9496188,
            "lng": 145.151234
        }
    },
    {
        "General Practitioner (GP)": "Windsor Avenue Clinic",
        "Address": "4B-4C Windsor Avenue, Springvale VIC 3171",
        "Phone": "03 9548 2323",
        "Location": {
            "lat": -37.9514881,
            "lng": 145.1485272
        }
    },
    {
        "General Practitioner (GP)": "Priceline Clinic - Heathmont",
        "Address": "160-162 Canterbury Road, Heathmont VIC 3135",
        "Phone": "03 9729 4545",
        "Location": {
            "lat": -37.8257943,
            "lng": 145.248304
        }
    },
    {
        "General Practitioner (GP)": "National Clinic - Burntbridge",
        "Address": "Burntbridge Shopping Centre, Shop 6-8A, 434 Maroondah Highway, Croydon VIC 3136",
        "Phone": "03 9870 5936",
        "Location": {
            "lat": -37.7963765,
            "lng": 145.2567253
        }
    },
    {
        "General Practitioner (GP)": "Waverley Police Road Clinic",
        "Address": "304 Police Road, Noble Park North VIC 3174",
        "Phone": "03 9795 0468",
        "Location": {
            "lat": -37.9369027,
            "lng": 145.1867072
        }
    },
    {
        "General Practitioner (GP)": "Nova Clinic - Waverley Gardens",
        "Address": "Waverley Gardens Shopping Centre, Shop 4, Corner Police and Jacksons Road, Mulgrave VIC 3170",
        "Phone": "03 9546 3637",
        "Location": {
            "lat": -37.9032904,
            "lng": 145.16419695919757
        }
    },
    {
        "General Practitioner (GP)": "Priceline Clinic Knox",
        "Address": "Westfield Knox, Level 1 Shop 1060, 425 Burwood Highway, Wantirna South VIC 3152",
        "Phone": "03 9801 5560",
        "Location": {
            "lat": -37.8710692,
            "lng": 145.2436768
        }
    },
    {
        "General Practitioner (GP)": "Clinic@Knox",
        "Address": "Westfield Knox, Shop 2081, 425 Burwood Highway, Wantirna South VIC 3152",
        "Phone": "03 9800 5199",
        "Location": {
            "lat": -37.8710692,
            "lng": 145.2436768
        }
    },
    {
        "General Practitioner (GP)": "Nova Clinic - Dingley",
        "Address": "97 Centre Dandenong Road, Dingley Village VIC 3172",
        "Phone": "03 9551 4222",
        "Location": {
            "lat": -37.9722468,
            "lng": 145.1117044
        }
    },
    {
        "General Practitioner (GP)": "Harrisfield Clinic",
        "Address": "Shop 5, 497 Princes Highway, Noble Park VIC 3174",
        "Phone": "03 9548 1616",
        "Location": {
            "lat": -37.9505723,
            "lng": 145.1759091
        }
    },
    {
        "General Practitioner (GP)": "Mordialloc Amcal Max Clinic",
        "Address": "467 Main Street, Mordialloc VIC 3195",
        "Phone": "03 9580 1019",
        "Location": {
            "lat": -38.0058467,
            "lng": 145.0862516
        }
    },
    {
        "General Practitioner (GP)": "Silverton Medical Clinic",
        "Address": "135 Jacksons Road, Noble Park North VIC 3174",
        "Phone": "03 9795 4122",
        "Location": {
            "lat": -37.9563505,
            "lng": 145.191426
        }
    },
    {
        "General Practitioner (GP)": "Clinic Noble Park",
        "Address": "6-10 Leonard Avenue, Noble Park VIC 3174",
        "Phone": "03 9518 1209",
        "Location": {
            "lat": -37.9680062,
            "lng": 145.175816
        }
    },
    {
        "General Practitioner (GP)": "Direct Clinic Outlet Croydon",
        "Address": "88-92 Main Street, Croydon VIC 3136",
        "Phone": "03 9723 7711",
        "Location": {
            "lat": -37.7945425,
            "lng": 145.2823588
        }
    },
    {
        "General Practitioner (GP)": "Wyndham City Council - Community Support",
        "Address": "45 Princes Highway, Werribee VIC 3030",
        "Phone": "03 9742 0736",
        "Location": {
            "lat": -37.8849992,
            "lng": 144.6998845
        }
    },
    {
        "General Practitioner (GP)": "Maroondah City Council - Civic Square Service Centre",
        "Address": "7 Civic Square, Croydon VIC 3136",
        "Phone": "03 9294 5627",
        "Location": {
            "lat": -37.8004659,
            "lng": 145.2805459
        }
    },
    {
        "General Practitioner (GP)": "TerryWhite Clinic Croydon",
        "Address": "Arndale Shopping Centre, Shop 20-21, 224 Mt Dandenong Road, Croydon VIC 3136",
        "Phone": "03 9723 6222",
        "Location": {
            "lat": -37.798806,
            "lng": 145.2833578
        }
    },
    {
        "General Practitioner (GP)": "Hume City Council Immunisation Services - Sunbury",
        "Address": "Sunbury Memorial Hall, 6 Stawell Street, Sunbury VIC 3429",
        "Phone": "03 9205 2523",
        "Location": {
            "lat": -37.5795958,
            "lng": 144.733317
        }
    },
    {
        "General Practitioner (GP)": "TerryWhite Clinic Sunbury",
        "Address": "83-85 Evans Street, Sunbury VIC 3429",
        "Phone": "03 9744 2801",
        "Location": {
            "lat": -37.5807659,
            "lng": 144.7285891
        }
    },
    {
        "General Practitioner (GP)": "Gap Road Clinic",
        "Address": "46 Gap Road, Sunbury VIC 3429",
        "Phone": "03 9740 4429",
        "Location": {
            "lat": -37.5797284,
            "lng": 144.7223253
        }
    },
    {
        "General Practitioner (GP)": "Parkmore Clinic",
        "Address": "323 Cheltenham Road, Keysborough VIC 3173",
        "Phone": "03 9791 0777",
        "Location": {
            "lat": -37.9933159,
            "lng": 145.1648533
        }
    },
    {
        "General Practitioner (GP)": "TerryWhite Clinic Parkmore",
        "Address": "Parkmore Shopping Centre, Shop R09, 317 Cheltenham Road, Keysborough VIC 3173",
        "Phone": "03 9798 5740",
        "Location": {
            "lat": -37.9933159,
            "lng": 145.1648533
        }
    },
    {
        "General Practitioner (GP)": "Amcal Rowville Clinic",
        "Address": "Wellington Village, Shop 2, 1100 Wellington Road, Rowville VIC 3178",
        "Phone": "03 9755 8088",
        "Location": {
            "lat": -37.9280619,
            "lng": 145.2528745
        }
    },
    {
        "General Practitioner (GP)": "Priceline Clinic Mooroolbark",
        "Address": "28 Brice Avenue, Mooroolbark VIC 3138",
        "Phone": "03 9726 7611",
        "Location": {
            "lat": -37.7858655,
            "lng": 145.3161984
        }
    },
    {
        "General Practitioner (GP)": "TerryWhite Clinic - Chirnside",
        "Address": "Chirnside Park Shopping Centre, Shop 628, 239-241 Maroondah Highway, Chirnside Park VIC 3116",
        "Phone": "03 9727 1555",
        "Location": {
            "lat": -37.7693019,
            "lng": 145.2974504
        }
    },
    {
        "General Practitioner (GP)": "Mooroolbark Community Centre",
        "Address": "125 Brice Avenue, Mooroolbark VIC 3138",
        "Phone": "03 9726 5488",
        "Location": {
            "lat": -37.7858655,
            "lng": 145.3161984
        }
    },
    {
        "General Practitioner (GP)": "Edithvale Family and Children's Centre",
        "Address": "122 Edithvale Road, Edithvale VIC 3196",
        "Phone": "03 8782 1200",
        "Location": {
            "lat": -38.0374002,
            "lng": 145.1125885
        }
    },
    {
        "General Practitioner (GP)": "Edithvale Maternal & Child Health Centre",
        "Address": "88 120 Edithvale Road, Edithvale VIC 3196",
        "Phone": "03 8782 1280",
        "Location": {
            "lat": -38.0374002,
            "lng": 145.1125885
        }
    },
    {
        "General Practitioner (GP)": "Bunurong Health Service",
        "Address": "3 Carroll Avenue, Dandenong VIC 3175",
        "Phone": "03 9794 5933",
        "Location": {
            "lat": -37.9788345,
            "lng": 145.2231912
        }
    },
    {
        "General Practitioner (GP)": "TerryWhite Clinic - Dandenong Plaza",
        "Address": "Dandenong Plaza, Level 3 Shop 370, 22-25 McCrae Street, Dandenong VIC 3175",
        "Phone": "03 9794 5959",
        "Location": {
            "lat": -37.9886761,
            "lng": 145.2180217
        }
    },
    {
        "General Practitioner (GP)": "Clinic - Dandenong",
        "Address": "265 Lonsdale Street, Dandenong VIC 3175",
        "Phone": "03 9792 0522",
        "Location": {
            "lat": -37.9874322,
            "lng": 145.2137881
        }
    },
    {
        "General Practitioner (GP)": "Clinic Melton",
        "Address": "Melton Gate Way, Unit 4, 66-84 High Street, Melton VIC 3337",
        "Phone": "03 9746 8733",
        "Location": {
            "lat": -37.6834834,
            "lng": 144.5800749
        }
    },
    {
        "General Practitioner (GP)": "Amcal Clinic - Whittlesea",
        "Address": "69 Church Street, Whittlesea VIC 3757",
        "Phone": "03 9716 2211",
        "Location": {
            "lat": -37.5085907,
            "lng": 145.1186208
        }
    },
    {
        "General Practitioner (GP)": "Whittlesea Medical Clinic",
        "Address": "77 Church Street, Whittlesea VIC 3757",
        "Phone": "03 9716 2207",
        "Location": {
            "lat": -37.5085907,
            "lng": 145.1186208
        }
    },
    {
        "General Practitioner (GP)": "Clinic Discount Centre Upper Ferntree Gully",
        "Address": "Ferntree Plaza, Shop 9-10, 1200 Burwood Highway, Upper Ferntree Gully VIC 3156",
        "Phone": "03 9758 1082",
        "Location": {
            "lat": -37.8934715,
            "lng": 145.3096284
        }
    },
    {
        "General Practitioner (GP)": "Adam's Clinic",
        "Address": "413 Nepean Highway, Chelsea VIC 3196",
        "Phone": "03 9772 1126",
        "Location": {
            "lat": -38.0529006,
            "lng": 145.11588627277177
        }
    },
    {
        "General Practitioner (GP)": "City Of Melton",
        "Address": "232 High Street, Melton VIC 3337",
        "Phone": "03 9747 7200",
        "Location": {
            "lat": -37.6834834,
            "lng": 144.5800749
        }
    },
    {
        "General Practitioner (GP)": "Autumn Place Clinic",
        "Address": "19-20 Autumn Place, Doveton VIC 3177",
        "Phone": "03 9706 9183",
        "Location": {
            "lat": -37.9944111,
            "lng": 145.2388527
        }
    },
    {
        "General Practitioner (GP)": "Endeavour Hills Amcal + Clinic",
        "Address": "Endeavour Hills Shopping Centre, Shop 47, 78-80 Heatherton Road, Endeavour Hills VIC 3802",
        "Phone": "03 9700 2828",
        "Location": {
            "lat": -37.972686,
            "lng": 145.2382683
        }
    },
    {
        "General Practitioner (GP)": "Yarra Ranges Council",
        "Address": "Civic Centre, 15 Anderson Street, Lilydale VIC 3140",
        "Phone": "1300 368 333",
        "Location": {
            "lat": -37.7574586,
            "lng": 145.3549214
        }
    },
    {
        "General Practitioner (GP)": "Melton Clinic Superstore",
        "Address": "383-385 High Street, Melton VIC 3337",
        "Phone": "03 9747 8444",
        "Location": {
            "lat": -37.6834834,
            "lng": 144.5800749
        }
    },
    {
        "General Practitioner (GP)": "Priceline Clinic Lilydale",
        "Address": "Lilydale Village, Shop 9, 343-347 Main Street, Lilydale VIC 3140",
        "Phone": "03 9735 1000",
        "Location": {
            "lat": -37.7575325,
            "lng": 145.3498785
        }
    },
    {
        "General Practitioner (GP)": "Clinic Discount Centre Endeavour Hills",
        "Address": "61 Heatherton Road, Endeavour Hills VIC 3802",
        "Phone": "03 9700 7606",
        "Location": {
            "lat": -37.972686,
            "lng": 145.2382683
        }
    },
    {
        "General Practitioner (GP)": "Clinic 4 Less - Melton",
        "Address": "Shop 107, 533-555 High Street, Melton VIC 3337",
        "Phone": "03 9746 8405",
        "Location": {
            "lat": -37.6863188,
            "lng": 144.5643476
        }
    },
    {
        "General Practitioner (GP)": "Mt Evelyn Compounding Clinic",
        "Address": "35 Wray Crescent, Mount Evelyn VIC 3796",
        "Phone": "03 9736 2949",
        "Location": {
            "lat": -37.7856653,
            "lng": 145.3788456
        }
    },
    {
        "General Practitioner (GP)": "Belgrave Medical Clinic",
        "Address": "1575 Burwood Highway, Tecoma VIC 3160",
        "Phone": "03 9757 8000",
        "Location": {
            "lat": -37.9069371,
            "lng": 145.34714911547206
        }
    },
    {
        "General Practitioner (GP)": "Priceline Clinic Hampton Park",
        "Address": "Hampton Park Shopping Square, Shop 48 - 49, Somerville Road, Hampton Park VIC 3976",
        "Phone": "03 9799 3222",
        "Location": {
            "lat": -38.0319746,
            "lng": 145.2659499
        }
    },
    {
        "General Practitioner (GP)": "St Mary Clinic",
        "Address": "1181 Frankston Dandenong Road, Carrum Downs VIC 3201",
        "Phone": "03 8770 8888",
        "Location": {
            "lat": -38.1089035,
            "lng": 145.16174
        }
    },
    {
        "General Practitioner (GP)": "City of Casey - Narre Warren - Immunisation Service",
        "Address": "Bunjil Place, 2 Patrick Northeast Drive, Narre Warren VIC 3805",
        "Phone": "03 9705 5200",
        "Location": {
            "lat": -38.0198473,
            "lng": 145.3010794
        }
    },
    {
        "General Practitioner (GP)": "Simon Yu Clinic - Wallan",
        "Address": "Shop 1, 65 High Street, Wallan VIC 3756",
        "Phone": "03 5783 1403",
        "Location": {
            "lat": -37.4067079,
            "lng": 144.9798628
        }
    },
    {
        "General Practitioner (GP)": "Wallan Amcal Clinic",
        "Address": "Wellington Square, Shop 4, 81-89 High Street, Wallan VIC 3756",
        "Phone": "03 5783 4800",
        "Location": {
            "lat": -37.4067079,
            "lng": 144.9798628
        }
    },
    {
        "General Practitioner (GP)": "Direct Clinic Outlet - Belvedere Park",
        "Address": "284 Seaford Road, Seaford VIC 3198",
        "Phone": "03 9786 2703",
        "Location": {
            "lat": -38.1108188,
            "lng": 145.1331446
        }
    },
    {
        "General Practitioner (GP)": "Priceline Clinic - Carrum Downs",
        "Address": "Carrum Downs Shopping Centre, Shop 4-8, 100 Hall Road, Carrum Downs VIC 3201",
        "Phone": "03 9782 1277",
        "Location": {
            "lat": -38.1018907,
            "lng": 145.1872907
        }
    },
    {
        "General Practitioner (GP)": "Riddell Country Practice",
        "Address": "9 Station Street, Riddells Creek VIC 3431",
        "Phone": "03 5428 7591",
        "Location": {
            "lat": -37.4629994,
            "lng": 144.6770148
        }
    },
    {
        "General Practitioner (GP)": "Clinic - Frankston",
        "Address": "32-34 Wells Street, Frankston VIC 3199",
        "Phone": "03 9783 9788",
        "Location": {
            "lat": -38.1429575,
            "lng": 145.1212084
        }
    },
    {
        "General Practitioner (GP)": "TerryWhite Clinic Clinic Frankston",
        "Address": "89-97 Young Street, Frankston VIC 3199",
        "Phone": "03 9783 3373",
        "Location": {
            "lat": -38.1462889,
            "lng": 145.1225015
        }
    },
    {
        "General Practitioner (GP)": "Blooms The Clinic - Casey Central",
        "Address": "Casey Central Shopping Centre, Shop 132 - 134, 400 Narre Warren-Cranbourne Road, Narre Warren South VIC 3805",
        "Phone": "03 9704 8166",
        "Location": {
            "lat": -38.0436283,
            "lng": 145.3036971
        }
    },
    {
        "General Practitioner (GP)": "Berwick Clinic",
        "Address": "51 High Street, Berwick VIC 3806",
        "Phone": "03 9707 1555",
        "Location": {
            "lat": -38.0309962,
            "lng": 145.3465054
        }
    },
    {
        "General Practitioner (GP)": "HealthMint Clinic",
        "Address": "Shop 12, 2-10 William Thwaites Boulevard, Cranbourne North VIC 3977",
        "Phone": "03 5611 3365",
        "Location": {
            "lat": -38.0820534,
            "lng": 145.3151328
        }
    },
    {
        "General Practitioner (GP)": "Soul Pattinson Clinic - Karingal Hub",
        "Address": "Karingal Hub Shopping Centre, Shop T86, 330 Cranbourne Road, Frankston VIC 3199",
        "Phone": "03 9789 1699",
        "Location": {
            "lat": -38.1473922,
            "lng": 145.1412284
        }
    },
    {
        "General Practitioner (GP)": "Clinic - Gisborne",
        "Address": "Gisborne Village Shopping Centre, Shop 29-31, 22 Brantome Street, Gisborne VIC 3437",
        "Phone": "03 5428 1366",
        "Location": {
            "lat": -37.4872885,
            "lng": 144.5896505
        }
    },
    {
        "General Practitioner (GP)": "Priceline Clinic Gisborne",
        "Address": "Shop 1, 18 Brantome Street, Gisborne VIC 3437",
        "Phone": "03 5428 2107",
        "Location": {
            "lat": -37.4872885,
            "lng": 144.5896505
        }
    },
    {
        "General Practitioner (GP)": "Eden Rise Clinic",
        "Address": "Eden Rise Shopping Centre, Shop 30, 1 O'Shea Road, Berwick VIC 3806",
        "Phone": "03 8794 7920",
        "Location": {
            "lat": -38.0628079,
            "lng": 145.3390661
        }
    },
    {
        "General Practitioner (GP)": "Nova Clinic - Langwarrin",
        "Address": "230 Cranbourne Road, Langwarrin VIC 3910",
        "Phone": "03 9775 8888",
        "Location": {
            "lat": -38.156374,
            "lng": 145.1704875
        }
    },
    {
        "General Practitioner (GP)": "Macedon Ranges Shire Council - Administration Centre Gisborne",
        "Address": "40 Robertson Street, Gisborne VIC 3437",
        "Phone": "1300 656 577",
        "Location": {
            "lat": -37.4858092,
            "lng": 144.5912441
        }
    },
    {
        "General Practitioner (GP)": "TerryWhite Clinic Mt Eliza",
        "Address": "Shop 1, 89 Mount Eliza Way, Mount Eliza VIC 3930",
        "Phone": "03 9787 7988",
        "Location": {
            "lat": -38.1851294,
            "lng": 145.089546
        }
    },
    {
        "General Practitioner (GP)": "Bacchus Marsh Village UFS Clinic",
        "Address": "Bacchus Marsh Village, Shop 66, 160-192 Main Street, Bacchus Marsh VIC 3340",
        "Phone": "03 5367 8600",
        "Location": {
            "lat": -37.6754455,
            "lng": 144.4350994
        }
    },
    {
        "General Practitioner (GP)": "Amcal Clinic - Clyde North",
        "Address": "Selandra Rise Shopping Centre, Shop 6, Selandra Boulevard, Clyde North VIC 3978",
        "Phone": "03 5998 0934",
        "Location": {
            "lat": -38.1159954,
            "lng": 145.3236029
        }
    },
    {
        "General Practitioner (GP)": "Clinic on Clyde",
        "Address": "Shopping on Clyde, Shop 12, 280 Berwick-Cranbourne Road, Clyde VIC 3978",
        "Phone": "03 5998 0400",
        "Location": {
            "lat": -38.1185002,
            "lng": 145.3207171
        }
    },
    {
        "General Practitioner (GP)": "Romsey Clinic",
        "Address": "Shop 3, 107-113 Main Street, Romsey VIC 3434",
        "Phone": "03 5429 5353",
        "Location": {
            "lat": -37.3414956,
            "lng": 144.7418891
        }
    },
    {
        "General Practitioner (GP)": "Simon Yu Kilmore Clinic",
        "Address": "20 Sydney Street, Kilmore VIC 3764",
        "Phone": "03 5782 1432",
        "Location": {
            "lat": -37.2874098,
            "lng": 144.9491009
        }
    },
    {
        "General Practitioner (GP)": "Kilmore Amcal Clinic",
        "Address": "61-63 Sydney Street, Kilmore VIC 3764",
        "Phone": "03 5782 1722",
        "Location": {
            "lat": -37.2874098,
            "lng": 144.9491009
        }
    },
    {
        "General Practitioner (GP)": "Peak Clinic Drysdale",
        "Address": "Shop 1, 19 Clifton Springs Road, Drysdale VIC 3222",
        "Phone": "03 5251 2671",
        "Location": {
            "lat": -38.1726272,
            "lng": 144.5709848
        }
    },
    {
        "General Practitioner (GP)": "Priceline Clinic Pakenham",
        "Address": "Pakenham Place Shopping Centre, Shop 1, 55 John Street, Pakenham VIC 3810",
        "Phone": "03 5941 1933",
        "Location": {
            "lat": -38.078971499999994,
            "lng": 145.4802814287049
        }
    },
    {
        "General Practitioner (GP)": "United Clinic - Pakenham",
        "Address": "Pakenham Central Marketplace, Shop 1, 50-54 John Street, Pakenham VIC 3810",
        "Phone": "03 5940 4295",
        "Location": {
            "lat": -38.0780626,
            "lng": 145.4812835
        }
    },
    {
        "General Practitioner (GP)": "Ochre Lancefield Country Practice",
        "Address": "17 High Street, Lancefield VIC 3435",
        "Phone": "03 5429 1362",
        "Location": {
            "lat": -37.2767908,
            "lng": 144.733642
        }
    },
    {
        "General Practitioner (GP)": "Lancefield Clinic",
        "Address": "15 High Street, Lancefield VIC 3435",
        "Phone": "03 5429 1691",
        "Location": {
            "lat": -37.2767908,
            "lng": 144.733642
        }
    },
    {
        "General Practitioner (GP)": "Tooradin Clinic",
        "Address": "Shop 3, 106 South Gippsland Highway, Tooradin VIC 3980",
        "Phone": "03 5998 3771",
        "Location": {
            "lat": -38.1886687,
            "lng": 145.3468332
        }
    },
    {
        "General Practitioner (GP)": "TerryWhite Clinic Hastings",
        "Address": "47 High Street, Hastings VIC 3915",
        "Phone": "03 5979 1513",
        "Location": {
            "lat": -38.3077267,
            "lng": 145.1854499
        }
    },
    {
        "General Practitioner (GP)": "Direct Clinic Outlet Rosebud",
        "Address": "999 Point Nepean Road, Rosebud VIC 3939",
        "Phone": "03 5986 8331",
        "Location": {
            "lat": -38.3552355,
            "lng": 144.9061541
        }
    },
    {
        "General Practitioner (GP)": "Bant's Amcal Clinic",
        "Address": "1045 Point Nepean Road, Rosebud VIC 3939",
        "Phone": "03 5986 1676",
        "Location": {
            "lat": -38.3552355,
            "lng": 144.9061541
        }
    },
    {
        "General Practitioner (GP)": "MITCHELL SHIRE COUNCIL",
        "Address": "113 High Street, Broadford VIC 3658",
        "Phone": "03 5734 6200",
        "Location": {
            "lat": -37.2029077,
            "lng": 145.0489343
        }
    },
    {
        "General Practitioner (GP)": "Quality Clinic - Bellpost",
        "Address": "Bellpost Shopping Centre, Shop 17-18, 290-306 Anakie Road, Norlane VIC 3214",
        "Phone": "03 5275 6977",
        "Location": {
            "lat": -38.0819888,
            "lng": 144.3371435
        }
    },
    {
        "General Practitioner (GP)": "TerryWhite Clinic - Rosebud",
        "Address": "3 Boneo Road, Rosebud VIC 3939",
        "Phone": "03 5986 8288",
        "Location": {
            "lat": -38.3598492,
            "lng": 144.889725
        }
    },
    {
        "General Practitioner (GP)": "Community Care Clinic - North Geelong",
        "Address": "75 Separation Street, Geelong North VIC 3215",
        "Phone": "03 5278 4300",
        "Location": {
            "lat": -38.1119366,
            "lng": 144.3528398
        }
    },
    {
        "General Practitioner (GP)": "Peak Clinic - Bellarine Village",
        "Address": "Bellarine Village Shopping Centre, Shop 5, 25-29 Bellarine Highway, Newcomb VIC 3219",
        "Phone": "03 5248 1501",
        "Location": {
            "lat": -38.1735332,
            "lng": 144.402482
        }
    },
    {
        "General Practitioner (GP)": "Deakin University Clinic - Waterfront Campus",
        "Address": "John Hay Building, 1 Gheringhap Street, Geelong VIC 3220",
        "Phone": "03 5247 9312",
        "Location": {
            "lat": -38.1527593,
            "lng": 144.3554023
        }
    },
    {
        "General Practitioner (GP)": "Discount Drug Stores East Geelong",
        "Address": "1 Ormond Road, East Geelong VIC 3219",
        "Phone": "03 5229 5565",
        "Location": {
            "lat": -38.1620569,
            "lng": 144.3783427
        }
    },
    {
        "General Practitioner (GP)": "Clinic - Geelong",
        "Address": "179-181 Little Malop Street, Geelong VIC 3220",
        "Phone": "03 5221 9940",
        "Location": {
            "lat": -38.149166449999996,
            "lng": 144.36445198198712
        }
    },
    {
        "General Practitioner (GP)": "Priceline Clinic Geelong West",
        "Address": "91 Pakington Street, Geelong West VIC 3218",
        "Phone": "03 5229 1058",
        "Location": {
            "lat": -38.137204049999994,
            "lng": 144.3487008719897
        }
    },
    {
        "General Practitioner (GP)": "Rye Beach Terry White Clinic",
        "Address": "2345 Point Nepean Road, Rye VIC 3941",
        "Phone": "03 5985 2292",
        "Location": {
            "lat": -38.3710613,
            "lng": 144.8308795
        }
    },
    {
        "General Practitioner (GP)": "Community Care Clinic - Geelong West",
        "Address": "Shop 1, 184 Pakington Street, Geelong West VIC 3218",
        "Phone": "03 5246 5850",
        "Location": {
            "lat": -38.1413135,
            "lng": 144.34843530339532
        }
    },
    {
        "General Practitioner (GP)": "Vines Road Clinic",
        "Address": "99 Vines Road, Hamlyn Heights VIC 3215",
        "Phone": "03 5278 4064",
        "Location": {
            "lat": -38.12098,
            "lng": 144.328243
        }
    },
    {
        "General Practitioner (GP)": "MOORABOOL SHIRE COUNCIL",
        "Address": "15 Stead Street, Ballan VIC 3342",
        "Phone": "03 5366 7100",
        "Location": {
            "lat": -37.6000797,
            "lng": 144.2279951
        }
    },
    {
        "General Practitioner (GP)": "Community Care Clinic - Belmont",
        "Address": "157 High Street, Belmont VIC 3216",
        "Phone": "03 5241 1755",
        "Location": {
            "lat": -38.1823454,
            "lng": 144.3349477
        }
    },
    {
        "General Practitioner (GP)": "291 Roslyn Road Medical Practice",
        "Address": "291 Roslyn Road, Highton VIC 3216",
        "Phone": "03 5241 1155",
        "Location": {
            "lat": -38.1714319,
            "lng": 144.3096902
        }
    },
    {
        "General Practitioner (GP)": "Barwon Health - Immunisation Service",
        "Address": "Barwon Health Community Health Centre, 1 17 Reynolds Road, Belmont VIC 3216",
        "Phone": "03 4215 6963",
        "Location": {
            "lat": -38.1893606,
            "lng": 144.3277274
        }
    },
    {
        "General Practitioner (GP)": "Campaspe Family Practice",
        "Address": "Kyneton Hospital, 7-25 Caroline Chisholm Drive, Kyneton VIC 3444",
        "Phone": "03 5422 2877",
        "Location": {
            "lat": -37.2547283,
            "lng": 144.4701376255794
        }
    },
    {
        "General Practitioner (GP)": "Bannockburn Clinic",
        "Address": "6 High Street, Bannockburn VIC 3331",
        "Phone": "03 5281 1519",
        "Location": {
            "lat": -38.0452291,
            "lng": 144.1719057
        }
    },
    {
        "General Practitioner (GP)": "Golden Plains Shire Council - Bannockburn",
        "Address": "2a Pope Street, Bannockburn VIC 3331",
        "Phone": "03 5220 7111",
        "Location": {
            "lat": -38.0490753,
            "lng": 144.1708642
        }
    },
    {
        "General Practitioner (GP)": "Lang Lang Clinic",
        "Address": "Shop 3, 14-16 Westernport Road, Lang Lang VIC 3984",
        "Phone": "03 5997 5403",
        "Location": {
            "lat": -38.2688604,
            "lng": 145.5551935
        }
    },
    {
        "General Practitioner (GP)": "Cowes Clinic",
        "Address": "24 Thompson Avenue, Cowes VIC 3922",
        "Phone": "03 5952 2061",
        "Location": {
            "lat": -38.4635385,
            "lng": 145.2389815
        }
    },
    {
        "General Practitioner (GP)": "Phillip Island Clinic",
        "Address": "Shop 2, 164-166 Thompson Avenue, Cowes VIC 3922",
        "Phone": "03 5952 2299",
        "Location": {
            "lat": -38.4593732,
            "lng": 145.2389843
        }
    },
    {
        "General Practitioner (GP)": "Surf Coast Shire - Torquay Children's Services Hub",
        "Address": "27 Grossmans Road, Torquay VIC 3228",
        "Phone": "03 5261 0549",
        "Location": {
            "lat": -38.3186059,
            "lng": 144.2959083
        }
    },
    {
        "General Practitioner (GP)": "Torquay Clinic",
        "Address": "18 Gilbert Street, Torquay VIC 3228",
        "Phone": "03 5261 2270",
        "Location": {
            "lat": -38.3321859,
            "lng": 144.3249404
        }
    },
    {
        "General Practitioner (GP)": "Maternal And Child Health Centre - Moriac",
        "Address": "Moriac Preschool Building, 7 Clerke Court, Moriac VIC 3240",
        "Phone": "03 5261 0600",
        "Location": {
            "lat": -38.2436512,
            "lng": 144.1692162
        }
    },
    {
        "General Practitioner (GP)": "Hepburn Community Care",
        "Address": "76 Vincent Street, Daylesford VIC 3460",
        "Phone": "03 5321 6550",
        "Location": {
            "lat": -37.3413082,
            "lng": 144.1426676
        }
    },
    {
        "General Practitioner (GP)": "Nyora Clinic",
        "Address": "44 Davis Street, Nyora VIC 3987",
        "Phone": "03 5659 0169",
        "Location": {
            "lat": -38.3328548,
            "lng": 145.6728101
        }
    },
    {
        "General Practitioner (GP)": "Clinic Discount Centre Drouin",
        "Address": "1 Hope Street, Drouin VIC 3818",
        "Phone": "03 5625 1888",
        "Location": {
            "lat": -38.1346371,
            "lng": 145.8564961
        }
    },
    {
        "General Practitioner (GP)": "Drouin Amcal Clinic",
        "Address": "33-35 Princes Way, Drouin VIC 3818",
        "Phone": "03 5625 1659",
        "Location": {
            "lat": -38.13826,
            "lng": 145.8611004
        }
    },
    {
        "General Practitioner (GP)": "Murrindindi Shire Council - Alexandra",
        "Address": "Shire Offices, 28 Perkins Street, Alexandra VIC 3714",
        "Phone": "03 5772 0333",
        "Location": {
            "lat": -37.1891273,
            "lng": 145.7128586
        }
    },
    {
        "General Practitioner (GP)": "BAW BAW SHIRE COUNCIL",
        "Address": "1 Civic Place, Warragul VIC 3820",
        "Phone": "03 5624 2411",
        "Location": {
            "lat": -38.1583334,
            "lng": 145.9342881
        }
    },
    {
        "General Practitioner (GP)": "Clinic Discount Clinic - Warragul",
        "Address": "38 Palmerston Street, Warragul VIC 3820",
        "Phone": "03 5623 1615",
        "Location": {
            "lat": -38.1617916,
            "lng": 145.9324743
        }
    },
    {
        "General Practitioner (GP)": "Gladstone Street Medical Clinic",
        "Address": "46 Gladstone Street, Warragul VIC 3820",
        "Phone": "03 5622 0444",
        "Location": {
            "lat": -38.1617437,
            "lng": 145.9364921
        }
    },
    {
        "General Practitioner (GP)": "Maternal And Child Health Centre - Anglesea",
        "Address": "Barwon Health Building, 3B McMillan Street, Anglesea VIC 3230",
        "Phone": "03 5261 0600",
        "Location": {
            "lat": -38.409679,
            "lng": 144.1855735
        }
    },
    {
        "General Practitioner (GP)": "TerryWhite Clinic Winchelsea",
        "Address": "15 Main Street, Winchelsea VIC 3241",
        "Phone": "03 5267 2198",
        "Location": {
            "lat": -38.2440324,
            "lng": 143.9873877
        }
    },
    {
        "General Practitioner (GP)": "Bridge Mall UFS Clinic",
        "Address": "40 Bridge Mall, Ballarat VIC 3350",
        "Phone": "03 5327 0400",
        "Location": {
            "lat": -37.5625305,
            "lng": 143.8625191
        }
    },
    {
        "General Practitioner (GP)": "Priceline Clinic Bridge Mall",
        "Address": "2 Bridge Mall, Ballarat VIC 3350",
        "Phone": "03 5331 7021",
        "Location": {
            "lat": -37.5625305,
            "lng": 143.8625191
        }
    },
    {
        "General Practitioner (GP)": "Eureka Clinic Clinic",
        "Address": "14 Albert Street, Ballarat VIC 3350",
        "Phone": "03 5331 1199",
        "Location": {
            "lat": -37.5628434,
            "lng": 143.859025
        }
    },
    {
        "General Practitioner (GP)": "Maternal And Child Health Centre - Winchelsea",
        "Address": "Hesse Rural Health Building, 12 Gosney Street, Winchelsea VIC 3241",
        "Phone": "03 5261 0600",
        "Location": {
            "lat": -38.2432644,
            "lng": 143.9837778
        }
    },
    {
        "General Practitioner (GP)": "Ballarat - Sturt Street UFS Clinic",
        "Address": "717 Sturt Street, Ballarat VIC 3350",
        "Phone": "03 5331 9811",
        "Location": {
            "lat": -37.56146845000001,
            "lng": 143.84973474999998
        }
    },
    {
        "General Practitioner (GP)": "Avenel Clinic",
        "Address": "2 Queen Street, Avenel VIC 3664",
        "Phone": "03 5796 2009",
        "Location": {
            "lat": -36.896312,
            "lng": 145.2298768
        }
    },
    {
        "General Practitioner (GP)": "Ballarat Community Health",
        "Address": "1042 Howitt Street, Wendouree VIC 3355",
        "Phone": "03 5338 4500",
        "Location": {
            "lat": -37.539033,
            "lng": 143.8224388
        }
    },
    {
        "General Practitioner (GP)": "Lyttleton Street Medical Clinic",
        "Address": "64 Lyttleton Street, Castlemaine VIC 3450",
        "Phone": "03 5472 3233",
        "Location": {
            "lat": -37.0643894,
            "lng": 144.2170644
        }
    },
    {
        "General Practitioner (GP)": "UFS Clinic",
        "Address": "1207 Howitt Street, Wendouree VIC 3355",
        "Phone": "03 5339 6933",
        "Location": {
            "lat": -37.54042455,
            "lng": 143.82990454819702
        }
    },
    {
        "General Practitioner (GP)": "MOUNT ALEXANDER SHIRE COUNCIL",
        "Address": "25 Lyttleton Street, Castlemaine VIC 3450",
        "Phone": "03 5471 1766",
        "Location": {
            "lat": -37.0643894,
            "lng": 144.2170644
        }
    },
    {
        "General Practitioner (GP)": "Bass Coast Health - Wonthaggi Hospital",
        "Address": "235 Graham Street, Wonthaggi VIC 3995",
        "Phone": "03 5671 3227",
        "Location": {
            "lat": -38.6058642,
            "lng": 145.5934637
        }
    },
    {
        "General Practitioner (GP)": "Leigh Community Health Centre",
        "Address": "55 Ferrars Street, Rokewood VIC 3330",
        "Phone": "03 5267 1280",
        "Location": {
            "lat": -37.9025805,
            "lng": 143.7242934
        }
    },
    {
        "General Practitioner (GP)": "Golden Plains Northern Community Centre, Haddon",
        "Address": "396 Sago Hill Road, Haddon VIC 3351",
        "Phone": "03 5220 7230",
        "Location": {
            "lat": -37.5776006,
            "lng": 143.7352211
        }
    },
    {
        "General Practitioner (GP)": "SOUTH GIPPSLAND SHIRE COUNCIL",
        "Address": "9 Smith Street, Leongatha VIC 3953",
        "Phone": "03 5662 9370",
        "Location": {
            "lat": -38.4763175,
            "lng": 145.94351
        }
    },
    {
        "General Practitioner (GP)": "Maternal And Child Health Centre - Lorne",
        "Address": "Figtree Community House, 16 Mountjoy Parade, Lorne VIC 3232",
        "Phone": "03 5261 0600",
        "Location": {
            "lat": -38.5365271,
            "lng": 143.9732849
        }
    },
    {
        "General Practitioner (GP)": "Strathdale Clinic",
        "Address": "Strathdale Shopping Centre, Shop 48D, 134 Condon Street, Kennington VIC 3550",
        "Phone": "03 5442 3889",
        "Location": {
            "lat": -36.7805016,
            "lng": 144.3124402
        }
    },
    {
        "General Practitioner (GP)": "Clinic Kangaroo Flat",
        "Address": "144 High Street, Kangaroo Flat VIC 3555",
        "Phone": "03 5447 8426",
        "Location": {
            "lat": -36.8186965,
            "lng": 144.2382345
        }
    },
    {
        "General Practitioner (GP)": "Priceline Clinic Bendigo Marketplace",
        "Address": "Bendigo Market Place, Shop 11, 116-120 Mitchell Street, Bendigo VIC 3550",
        "Phone": "03 5443 3319",
        "Location": {
            "lat": -36.7632122,
            "lng": 144.282635
        }
    },
    {
        "General Practitioner (GP)": "City of Greater Bendigo",
        "Address": "195 229 Lyttleton Terrace, Bendigo VIC 3550",
        "Phone": "03 44086590",
        "Location": {
            "lat": -36.75902495,
            "lng": 144.2836307973192
        }
    },
    {
        "General Practitioner (GP)": "Clinic - Bendigo",
        "Address": "43 Mitchell Street, Bendigo VIC 3550",
        "Phone": "03 5443 4988",
        "Location": {
            "lat": -36.76070765,
            "lng": 144.28012856611105
        }
    },
    {
        "General Practitioner (GP)": "Mansfield Clinic - Cathy Henry",
        "Address": "37 High Street, Mansfield VIC 3722",
        "Phone": "03 5775 1311",
        "Location": {
            "lat": -37.0528146,
            "lng": 146.0923942
        }
    },
    {
        "General Practitioner (GP)": "UFS Clinic View Street",
        "Address": "Corner of View and Barnard Street, Bendigo VIC 3550",
        "Phone": "03 5443 4610",
        "Location": {
            "lat": -36.7583562,
            "lng": 144.2679956
        }
    },
    {
        "General Practitioner (GP)": "Bendigo Primary Care Centre",
        "Address": "123 Arnold Street, Bendigo VIC 3550",
        "Phone": "03 5441 8622",
        "Location": {
            "lat": -36.7437049,
            "lng": 144.2743093
        }
    },
    {
        "General Practitioner (GP)": "UFS Clinic Maiden Gully",
        "Address": "Shop 2, 741 Calder Highway, Maiden Gully VIC 3551",
        "Phone": "03 5449 7149",
        "Location": {
            "lat": -36.7420419,
            "lng": 144.1993822
        }
    },
    {
        "General Practitioner (GP)": "CENTRAL GOLDFIELDS SHIRE COUNCIL",
        "Address": "Maryborough Regional College, 12 Nolan Street, Maryborough VIC 3465",
        "Phone": "03 5461 0647",
        "Location": {
            "lat": -37.0468779,
            "lng": 143.737386
        }
    },
    {
        "General Practitioner (GP)": "Priceline Clinic Maryborough",
        "Address": "101-103 High Street, Maryborough VIC 3465",
        "Phone": "03 5460 5999",
        "Location": {
            "lat": -37.0472225,
            "lng": 143.73692
        }
    },
    {
        "General Practitioner (GP)": "Clarendon Clinic",
        "Address": "4 Neill Street, Maryborough VIC 3465",
        "Phone": "03 5461 0100",
        "Location": {
            "lat": -37.0451572,
            "lng": 143.7363782
        }
    },
    {
        "General Practitioner (GP)": "Colac Otway Shire - Older Persons and Ability Support Services",
        "Address": "Colac Otway Shire Service Centre, 2-6 Rae Street, Colac VIC 3250",
        "Phone": "03 5232 9420",
        "Location": {
            "lat": -38.3421098,
            "lng": 143.5857692
        }
    },
    {
        "General Practitioner (GP)": "Latrobe City Council - Morwell Office",
        "Address": "141 Commercial Road, Morwell VIC 3840",
        "Phone": "1300 367 700",
        "Location": {
            "lat": -38.2473922,
            "lng": 146.4258293
        }
    },
    {
        "General Practitioner (GP)": "Skipton Infant Welfare Centre",
        "Address": "Skipton Hospital, Blake Street, Skipton VIC 3361",
        "Phone": "03 5340 1162",
        "Location": {
            "lat": -37.6841864,
            "lng": 143.3615113
        }
    },
    {
        "General Practitioner (GP)": "Clinic Discount Centre Churchill",
        "Address": "West Place Shopping Centre, Shop 7, 11-12 West Place, Churchill VIC 3842",
        "Phone": "03 5122 1390",
        "Location": {
            "lat": -38.3142299,
            "lng": 146.4200659
        }
    },
    {
        "General Practitioner (GP)": "Maternal And Child Health Centre - Lismore",
        "Address": "Lismore Community Health Centre, 102 High Street, Lismore VIC 3324",
        "Phone": "1800 552 902",
        "Location": {
            "lat": -37.9538742,
            "lng": 143.3435397
        }
    },
    {
        "General Practitioner (GP)": "PYRENEES SHIRE COUNCIL",
        "Address": "5 Lawrence Street, Beaufort VIC 3373",
        "Phone": "03 5349 1100",
        "Location": {
            "lat": -37.428236749999996,
            "lng": 143.38429237295185
        }
    },
    {
        "General Practitioner (GP)": "TerryWhite Clinic Traralgon",
        "Address": "65 Franklin Street, Traralgon VIC 3844",
        "Phone": "03 5174 2214",
        "Location": {
            "lat": -38.1942334,
            "lng": 146.5382946
        }
    },
    {
        "General Practitioner (GP)": "Clinic Traralgon",
        "Address": "92 Franklin Street, Traralgon VIC 3844",
        "Phone": "03 5174 2003",
        "Location": {
            "lat": -38.1942334,
            "lng": 146.5382946
        }
    },
    {
        "General Practitioner (GP)": "Dunolly Clinic",
        "Address": "119 Broadway, Dunolly VIC 3472",
        "Phone": "03 5468 1522",
        "Location": {
            "lat": -36.8660347,
            "lng": 143.7368127
        }
    },
    {
        "General Practitioner (GP)": "Dunolly Clinic",
        "Address": "199 Broadway, Dunolly VIC 3472",
        "Phone": "03 5468 1522",
        "Location": {
            "lat": -36.8660347,
            "lng": 143.7368127
        }
    },
    {
        "General Practitioner (GP)": "Community Care Clinic - Apollo Bay",
        "Address": "123 Great Ocean Road, Apollo Bay VIC 3233",
        "Phone": "03 5237 6312",
        "Location": {
            "lat": -38.7539267,
            "lng": 143.6689497
        }
    },
    {
        "General Practitioner (GP)": "Maternal & Child Health Centre - Merrigum",
        "Address": "145 Waverley Avenue, Merrigum VIC 3618",
        "Phone": "03 5855 2467",
        "Location": {
            "lat": -36.36934935,
            "lng": 145.132224657805
        }
    },
    {
        "General Practitioner (GP)": "Mooroopna Clinic",
        "Address": "90 McLennan Street, Mooroopna VIC 3629",
        "Phone": "03 5825 1912",
        "Location": {
            "lat": -36.3952648,
            "lng": 145.3546233
        }
    },
    {
        "General Practitioner (GP)": "Rochester Medical Practice",
        "Address": "40-44 Moore Street, Rochester VIC 3561",
        "Phone": "03 5484 1304",
        "Location": {
            "lat": -36.3608878,
            "lng": 144.7000059
        }
    },
    {
        "General Practitioner (GP)": "Clinic Shepparton",
        "Address": "425 Wyndham Street, Shepparton VIC 3630",
        "Phone": "03 5821 6000",
        "Location": {
            "lat": -36.3780417,
            "lng": 145.3999342
        }
    },
    {
        "General Practitioner (GP)": "Vita Healthcare",
        "Address": "Shepparton Market Place, Shop 2-3, 110 Benalla Road, Shepparton VIC 3630",
        "Phone": "03 5822 2273",
        "Location": {
            "lat": -36.3882462,
            "lng": 145.4245579
        }
    },
    {
        "General Practitioner (GP)": "Family Care Clinic - High Street",
        "Address": "Shop 14, 310 High Street, Shepparton VIC 3630",
        "Phone": "03 5821 0580",
        "Location": {
            "lat": -36.3815587,
            "lng": 145.4032602
        }
    },
    {
        "General Practitioner (GP)": "GREATER SHEPPARTON CITY COUNCIL",
        "Address": "70 Welsford Street, Shepparton VIC 3630",
        "Phone": "03 5832 9700",
        "Location": {
            "lat": -36.377464,
            "lng": 145.398035
        }
    },
    {
        "General Practitioner (GP)": "Priceline Clinic Benalla",
        "Address": "83 Bridge Street, Benalla VIC 3672",
        "Phone": "03 5762 2888",
        "Location": {
            "lat": -36.5549368,
            "lng": 145.9766271
        }
    },
    {
        "General Practitioner (GP)": "Jenny Milner - Marsha Watson Clinic",
        "Address": "55 Bridge Street, Benalla VIC 3672",
        "Phone": "03 5762 1033",
        "Location": {
            "lat": -36.5549368,
            "lng": 145.9766271
        }
    },
    {
        "General Practitioner (GP)": "Amcal Plus Benalla",
        "Address": "27-29 Bridge Street, Benalla VIC 3672",
        "Phone": "03 5762 7575",
        "Location": {
            "lat": -36.5549368,
            "lng": 145.9766271
        }
    },
    {
        "General Practitioner (GP)": "Kerr's Amcal Clinic",
        "Address": "155 Allan Street, Kyabram VIC 3620",
        "Phone": "03 5852 1023",
        "Location": {
            "lat": -36.3135065,
            "lng": 145.0522861
        }
    },
    {
        "General Practitioner (GP)": "Benalla Community Care Centre",
        "Address": "Ray Sweeney Community Care, 45 Coster Street, Benalla VIC 3672",
        "Phone": "03 5761 4500",
        "Location": {
            "lat": -36.55495715,
            "lng": 145.99449813503026
        }
    },
    {
        "General Practitioner (GP)": "Camperdown Clinic",
        "Address": "135 Manifold Street, Camperdown VIC 3260",
        "Phone": "03 5593 1152",
        "Location": {
            "lat": -38.2368592,
            "lng": 143.1537502
        }
    },
    {
        "General Practitioner (GP)": "Corangamite Shire",
        "Address": "181 Manifold Street, Camperdown VIC 3260",
        "Phone": "03 5593 7100",
        "Location": {
            "lat": -38.2368592,
            "lng": 143.1537502
        }
    },
    {
        "General Practitioner (GP)": "Yarram and District Health Service - Yarram",
        "Address": "85-91 Commercial Road, Yarram VIC 3971",
        "Phone": "1800 934 722",
        "Location": {
            "lat": -38.5692416,
            "lng": 146.6746776
        }
    },
    {
        "General Practitioner (GP)": "Yarram Clinic",
        "Address": "199 Commercial Road, Yarram VIC 3971",
        "Phone": "03 5182 5005",
        "Location": {
            "lat": -38.5692416,
            "lng": 146.6746776
        }
    },
    {
        "General Practitioner (GP)": "Neilson's Clinic Yarram",
        "Address": "247 Commercial Road, Yarram VIC 3971",
        "Phone": "03 5182 5042",
        "Location": {
            "lat": -38.5692416,
            "lng": 146.6746776
        }
    },
    {
        "General Practitioner (GP)": "Loddon Shire Council - Community Services",
        "Address": "Serpentine, 37 Peppercorn Way, Serpentine VIC 3517",
        "Phone": "03 5437 7999",
        "Location": {
            "lat": -36.409039,
            "lng": 143.9744496
        }
    },
    {
        "General Practitioner (GP)": "Clinic Echuca",
        "Address": "Shop 3, 102 Northern Highway, Echuca VIC 3564",
        "Phone": "03 5482 1017",
        "Location": {
            "lat": -36.1222088,
            "lng": 144.7534181
        }
    },
    {
        "General Practitioner (GP)": "Coburn & Reid Clinic",
        "Address": "177 Annesley Street, Echuca VIC 3564",
        "Phone": "03 5480 6011",
        "Location": {
            "lat": -36.1274517,
            "lng": 144.7518018
        }
    },
    {
        "General Practitioner (GP)": "Echuca Moama Family Medical Practice - Echuca",
        "Address": "179-183 Annesley Street, Echuca VIC 3564",
        "Phone": "03 5480 6001",
        "Location": {
            "lat": -36.1274517,
            "lng": 144.7518018
        }
    },
    {
        "General Practitioner (GP)": "Maternal And Child Health Centre - Terang",
        "Address": "62 Dow Street, Terang VIC 3264",
        "Phone": "1800 552 902",
        "Location": {
            "lat": -38.239052,
            "lng": 142.9250841
        }
    },
    {
        "General Practitioner (GP)": "Lake Bolac Bush Nursing Centre",
        "Address": "155 Montgomery Street, Lake Bolac VIC 3351",
        "Phone": "03 5355 8700",
        "Location": {
            "lat": -37.7243445,
            "lng": 142.8341798
        }
    },
    {
        "General Practitioner (GP)": "Priceline Clinic Ararat",
        "Address": "119 Barkly Street, Ararat VIC 3377",
        "Phone": "03 5352 1007",
        "Location": {
            "lat": -37.2856316,
            "lng": 142.9497674
        }
    },
    {
        "General Practitioner (GP)": "Sale Clinic",
        "Address": "73 Pearson Street, Sale VIC 3850",
        "Phone": "03 5144 5766",
        "Location": {
            "lat": -38.1077315,
            "lng": 147.0625967
        }
    },
    {
        "General Practitioner (GP)": "The Wellington Shire Service Centre - Sale Office",
        "Address": "70 Foster Street, Sale VIC 3850",
        "Phone": "1300 366 244",
        "Location": {
            "lat": -38.1114902,
            "lng": 147.065864
        }
    },
    {
        "General Practitioner (GP)": "Amcal+ Clinic - Findlay & Weymouth",
        "Address": "275 Raymond Street, Sale VIC 3850",
        "Phone": "03 5144 2005",
        "Location": {
            "lat": -38.1073334,
            "lng": 147.0656874
        }
    },
    {
        "General Practitioner (GP)": "Timboon And District Health Care Service",
        "Address": "21 Hospital Road, Timboon VIC 3268",
        "Phone": "03 5558 6000",
        "Location": {
            "lat": -38.4861602,
            "lng": 142.9773816
        }
    },
    {
        "General Practitioner (GP)": "Moyne Shire Council - Mortlake",
        "Address": "1 Jamieson Avenue, Mortlake VIC 3272",
        "Phone": "03 5558 7888",
        "Location": {
            "lat": -38.08141,
            "lng": 142.8092136
        }
    },
    {
        "General Practitioner (GP)": "Amcal Clinic Numurkah - Louis Hamon",
        "Address": "80 Melville Street, Numurkah VIC 3636",
        "Phone": "03 5862 1762",
        "Location": {
            "lat": -36.0902986,
            "lng": 145.4422995
        }
    },
    {
        "General Practitioner (GP)": "Clinic - Wangaratta DC",
        "Address": "180-182 Tone Road, Wangaratta VIC 3677",
        "Phone": "03 5721 2133",
        "Location": {
            "lat": -36.3592254,
            "lng": 146.315374
        }
    },
    {
        "General Practitioner (GP)": "Robertson's Clinic",
        "Address": "53 Phillipson Street, Wangaratta VIC 3677",
        "Phone": "03 5722 3333",
        "Location": {
            "lat": -36.3546874,
            "lng": 146.3049126
        }
    },
    {
        "General Practitioner (GP)": "Gateway Health - Wangaratta",
        "Address": "45 47 Mackay Street, Wangaratta VIC 3677",
        "Phone": "03 5723 2000",
        "Location": {
            "lat": -36.3575844,
            "lng": 146.3188522
        }
    },
    {
        "General Practitioner (GP)": "Myrtleford Clinic",
        "Address": "43 Clyde Street, Myrtleford VIC 3737",
        "Phone": "03 5752 1288",
        "Location": {
            "lat": -36.5612235,
            "lng": 146.7256897
        }
    },
    {
        "General Practitioner (GP)": "Shire Of Alpine",
        "Address": "2 Churchill Avenue, Bright VIC 3741",
        "Phone": "03 5755 0555",
        "Location": {
            "lat": -36.743404,
            "lng": 146.9779532
        }
    },
    {
        "General Practitioner (GP)": "Moira Shire Council",
        "Address": "44 Station Street, Cobram VIC 3644",
        "Phone": "1300 369 966",
        "Location": {
            "lat": -35.9232186,
            "lng": 145.6464856
        }
    },
    {
        "General Practitioner (GP)": "Yarrawonga Denis Medical Group",
        "Address": "72 Woods Road, Yarrawonga VIC 3730",
        "Phone": "03 5744 1777",
        "Location": {
            "lat": -36.0216294,
            "lng": 146.0132358
        }
    },
    {
        "General Practitioner (GP)": "TerryWhite Clinic Yarrawonga",
        "Address": "54 Belmore Street, Yarrawonga VIC 3730",
        "Phone": "03 5744 3035",
        "Location": {
            "lat": -36.0173075,
            "lng": 146.0044143
        }
    },
    {
        "General Practitioner (GP)": "Buloke Shire Council - Charlton",
        "Address": "1 High Street, Charlton VIC 3525",
        "Phone": "1300 520 520",
        "Location": {
            "lat": -36.2702502,
            "lng": 143.352391
        }
    },
    {
        "General Practitioner (GP)": "Clinic Warrnambool",
        "Address": "Gateway Plaza, Shop M1032, 154 Raglan Parade, Warrnambool VIC 3280",
        "Phone": "03 5562 9780",
        "Location": {
            "lat": -38.3782331,
            "lng": 142.4817332
        }
    },
    {
        "General Practitioner (GP)": "Children's Services Centre - Warrnambool",
        "Address": "550 Raglan Parade, Warrnambool VIC 3280",
        "Phone": "03 5559 4855",
        "Location": {
            "lat": -38.3782331,
            "lng": 142.4817332
        }
    },
    {
        "General Practitioner (GP)": "ARTZ & KAY Clinic",
        "Address": "145-149 Lava Street, Warrnambool VIC 3280",
        "Phone": "03 5562 0509",
        "Location": {
            "lat": -38.3797224,
            "lng": 142.4802492
        }
    },
    {
        "General Practitioner (GP)": "Monaghans Clinic",
        "Address": "140 Fairy Street, Warrnambool VIC 3280",
        "Phone": "03 5562 9555",
        "Location": {
            "lat": -38.3801156,
            "lng": 142.4801849
        }
    },
    {
        "General Practitioner (GP)": "WARRNAMBOOL CITY COUNCIL",
        "Address": "25 Liebig Street, Warrnambool VIC 3280",
        "Phone": "03 5559 4800",
        "Location": {
            "lat": -38.385867,
            "lng": 142.4815074
        }
    },
    {
        "General Practitioner (GP)": "Indigo Shire Council - Yackandandah Office",
        "Address": "34 High Street, Yackandandah VIC 3749",
        "Phone": "1300 365 003",
        "Location": {
            "lat": -36.3130767,
            "lng": 146.8395795
        }
    },
    {
        "General Practitioner (GP)": "Loch Sport Community Health Centre",
        "Address": "1 National Park Road, Loch Sport VIC 3851",
        "Phone": "03 5146 0349",
        "Location": {
            "lat": -38.0396823,
            "lng": 147.5930259
        }
    },
    {
        "General Practitioner (GP)": "East Gippsland Shire Council - Bairnsdale Corporate Centre",
        "Address": "273 Main Street, Bairnsdale VIC 3875",
        "Phone": "03 5153 9500",
        "Location": {
            "lat": -37.8270896,
            "lng": 147.6269273
        }
    },
    {
        "General Practitioner (GP)": "Corner Amcal Clinic Bairnsdale",
        "Address": "190 Main Street, Bairnsdale VIC 3875",
        "Phone": "03 5152 3107",
        "Location": {
            "lat": -37.8270896,
            "lng": 147.6269273
        }
    },
    {
        "General Practitioner (GP)": "Advantage Clinic Bairnsdale",
        "Address": "46 Nicholson Street, Bairnsdale VIC 3875",
        "Phone": "03 5152 4048",
        "Location": {
            "lat": -37.825678,
            "lng": 147.6265902
        }
    },
    {
        "General Practitioner (GP)": "Buloke Shire Council - Donald",
        "Address": "12 Houston Street, Donald VIC 3480",
        "Phone": "1300 520 520",
        "Location": {
            "lat": -36.3701525,
            "lng": 142.985177
        }
    },
    {
        "General Practitioner (GP)": "Corowa Health Service Immunisation Service",
        "Address": "Corowa District Hospital, 53 Guy Street, Corowa NSW 2646",
        "Phone": "02 6033 7555",
        "Location": {
            "lat": -35.9947182,
            "lng": 146.383844
        }
    },
    {
        "General Practitioner (GP)": "Buloke Shire Council - Wycheproof",
        "Address": "367 Broadway, Wycheproof VIC 3527",
        "Phone": "1300 520 520",
        "Location": {
            "lat": -36.0798439,
            "lng": 143.2257718
        }
    },
    {
        "General Practitioner (GP)": "GANNAWARRA SHIRE COUNCIL",
        "Address": "47 Victoria Street, Kerang VIC 3579",
        "Phone": "03 5450 9333",
        "Location": {
            "lat": -35.7250403,
            "lng": 143.9203202
        }
    },
    {
        "General Practitioner (GP)": "Moyne Shire Council - Port Fairy",
        "Address": "1 Princes Street, Port Fairy VIC 3284",
        "Phone": "03 5568 0555",
        "Location": {
            "lat": -38.3847969,
            "lng": 142.2381874
        }
    },
    {
        "General Practitioner (GP)": "Tangam Clinic",
        "Address": "50 Kiewa East Road, Tangambalanga VIC 3691",
        "Phone": "02 6073 0605",
        "Location": {
            "lat": -36.2578618,
            "lng": 147.0065932
        }
    },
    {
        "General Practitioner (GP)": "Good Price Clinic Warehouse - Wodonga",
        "Address": "285 Victoria Cross Parade, Wodonga VIC 3690",
        "Phone": "02 6056 8522",
        "Location": {
            "lat": -36.1422563,
            "lng": 146.8859362
        }
    },
    {
        "General Practitioner (GP)": "TerryWhite Clinic Wodonga",
        "Address": "Shop 1, 127 High Street, Wodonga VIC 3690",
        "Phone": "02 6024 1710",
        "Location": {
            "lat": -36.1218187,
            "lng": 146.8878948
        }
    },
    {
        "General Practitioner (GP)": "Clinic - Wodonga",
        "Address": "178 High Street, Wodonga VIC 3690",
        "Phone": "03 6024 1411",
        "Location": {
            "lat": -36.1102521,
            "lng": 146.8938804
        }
    },
    {
        "General Practitioner (GP)": "City Of Wodonga",
        "Address": "104 Hovell Street, Wodonga VIC 3690",
        "Phone": "02 6022 9300",
        "Location": {
            "lat": -36.1240847,
            "lng": 146.888564
        }
    },
    {
        "General Practitioner (GP)": "Albury Wodonga Family Clinic",
        "Address": "7 Elgin Boulevard, Wodonga VIC 3690",
        "Phone": "02 6024 3588",
        "Location": {
            "lat": -36.1214885,
            "lng": 146.8894767
        }
    },
    {
        "General Practitioner (GP)": "Southern Grampians Shire Council - Hamilton",
        "Address": "Frances Hewitt Community Centre, 2 Roberts Street, Hamilton VIC 3300",
        "Phone": "03 5551 8480",
        "Location": {
            "lat": -37.7326177,
            "lng": 142.031041
        }
    },